,Facility Id,FRS Id,Facility Name,City,State,Latitude,Longitude,Total reported emissions,CO2 emissions,Methane (CH4) emissions,Nitrous Oxide (N2O) emissions,SF6 emissions,Subpart Letter,Name of industry,Facility Type
0,1004377,110043803578,121 REGIONAL DISPOSAL FACILITY,MELISSA,TX,33.29857,-96.53586,325416.25,,325416.25,,,HH,Municipal Landfills,Direct Emitter
1,1004680,110013945062,58TH ST LF (MAIN COUNTY LF),MIAMI,FL,25.83301,-80.3465,56991.75,,56991.75,,,HH,Municipal Landfills,Direct Emitter
2,1012058,110071161547,"A.C.M.S., Inc.",Lake Panasoffkee,FL,28.743151,-82.091653,313745.5,,313745.5,,,HH,Municipal Landfills,Direct Emitter
3,1006529,110013921435,ACADIA PARISH POLICE JURY - ACADIA PARISH SANITARY LANDFILL,EGAN,LA,30.256038,-92.532637,46562.5,,46562.5,,,HH,Municipal Landfills,Direct Emitter
4,1001991,110071160847,ADRIAN LANDFILL,ADRIAN,MI,41.885177,-84.059029,6471.75,,6471.75,,,HH,Municipal Landfills,Direct Emitter
5,1001633,110009059366,ADS-CEDAR HILL LANDFILL,RAGLAND,AL,33.6845,-86.2525,24218.25,,24218.25,,,HH,Municipal Landfills,Direct Emitter
6,1001636,110013947453,ADS-PECAN ROW-EVERGREEN LANDFILLS,VALDOSTA,GA,30.81425,-83.35981,118347.0,,118347.0,,,HH,Municipal Landfills,Direct Emitter
7,1006790,110071159539,ADS-STAR RIDGE LANDFILL,MOODY,AL,33.607092,-86.507602,30115.25,,30115.25,,,HH,Municipal Landfills,Direct Emitter
8,1002094,110034159005,ADS/MCLEAN COUNTY LANDFILL,BLOOMINGTON,IL,40.465534,-89.03273,3525.5,,3525.5,,,HH,Municipal Landfills,Direct Emitter
9,1006979,110017987589,ADVANCED DISPOSAL OAK RIDGE LANDFILL,BALWIN,MO,38.556639,-90.527306,4912.25,,4912.25,,,HH,Municipal Landfills,Direct Emitter
10,1006088,110006219733,AKRON REGIONAL LANDFILL *,AKRON,OH,41.151282,-81.559298,1669.25,,1669.25,,,HH,Municipal Landfills,Direct Emitter
11,1006276,110037939737,ALBANY LANDFILL,ALBANY,NY,42.70324,-73.84958,51551.75,,51551.75,,,HH,Municipal Landfills,Direct Emitter
12,1003147,110034135264,ALCOA-MARYVILLE-BLOUNT COUNTY LANDFILL,Friendsville,TN,35.73834,-84.05978,87754.5,,87754.5,,,HH,Municipal Landfills,Direct Emitter
13,1004335,110043796942,ALL PURPOSE LANDFILL,SANTA CLARA,CA,37.4135,-121.9724,41527.0,,41527.0,,,HH,Municipal Landfills,Direct Emitter
14,1006197,110001167745,ALLIED IMPERIAL LANDFILL,IMPERIAL,CA,32.854701,-115.52505,33559.5,,33559.5,,,HH,Municipal Landfills,Direct Emitter
15,1007839,110002690730,ANDERSON LANDFILL,ANDERSON,CA,40.41754,-122.35787,29973.0,,29973.0,,,HH,Municipal Landfills,Direct Emitter
16,1005392,110030746959,ANGELINA COUNTY WASTE MANAGEMENT CENTER,LUFKIN,TX,31.2525,-94.695,108732.5,,108732.5,,,HH,Municipal Landfills,Direct Emitter
17,1006178,110043808136,ANN ARBOR SLF PHASE I & II,ANN ARBOR,MI,42.22703,-83.69976,21436.5,,21436.5,,,HH,Municipal Landfills,Direct Emitter
18,1004003,110013935331,APACHE JUNCTION LANDFILL,APACHE JUNCTION,AZ,33.377246,-111.528771,29789.5,,29789.5,,,HH,Municipal Landfills,Direct Emitter
19,1007800,110005040179,ATASCOCITA RECYCLING AND DISPOSAL FACILITY,HUMBLE,TX,29.95135,-95.24966,202608.75,,202608.75,,,HH,Municipal Landfills,Direct Emitter
20,1006056,110013454957,ATHENS & CLARKE COUNTIES-DUNLAP ROAD LF,WINTERVILLE,GA,33.9257,-83.2634,70743.25,,70743.25,,,HH,Municipal Landfills,Direct Emitter
21,1003328,110043803630,AVENAL REGIONAL LANDFILL,AVENAL,CA,36.01195,-120.11535,25527.25,,25527.25,,,HH,Municipal Landfills,Direct Emitter
22,1012891,110070209450,Abilene Environmental Landfill,Abilene,TX,32.523921,-99.750711,34689.75,,34689.75,,,HH,Municipal Landfills,Direct Emitter
23,1007357,110071161402,Abilene Regional Landfill,Abilene,TX,32.534633,-99.753812,200853.25,,200853.25,,,HH,Municipal Landfills,Direct Emitter
24,1005138,110043799609,Alamance County Landfill,Graham,NC,35.9306,-79.2941,130863.25,,130863.25,,,HH,Municipal Landfills,Direct Emitter
25,1003411,110043802846,Alderson Regional Landfill,ALDERSON,OK,34.894582,-95.686187,18738.0,,18738.0,,,HH,Municipal Landfills,Direct Emitter
26,1007072,110071159487,"Altair Disposal Services, LLC",Altair,TX,29.569298,-96.464242,34034.75,,34034.75,,,HH,Municipal Landfills,Direct Emitter
27,1004465,110071160590,American Canyon Landfill,American Canyon,CA,38.1809,-122.281,33650.25,,33650.25,,,HH,Municipal Landfills,Direct Emitter
28,1013081,110060771865,Amherst County Landfill,MADISON HEIGHTS,VA,37.47626,-79.03557,28023.75,,28023.75,,,HH,Municipal Landfills,Direct Emitter
29,1002813,110019990857,Anderson Regional Landfill,Belton,SC,34.57226,-82.4603,246753.25,,246753.25,,,HH,Municipal Landfills,Direct Emitter
30,1011466,110024417530,Anoka Municipal Regional Landfill,Ramsey,MN,45.23715,-93.42943,30023.5,,30023.5,,,HH,Municipal Landfills,Direct Emitter
31,1002236,110071161780,Anson County Waste Management Facility,Polkton,NC,34.969177,-80.165185,80463.75,,80463.75,,,HH,Municipal Landfills,Direct Emitter
32,1001297,110032941912,Arrowhead Landfill,Uniontown,AL,32.435714,-87.437716,82303.25,,82303.25,,,HH,Municipal Landfills,Direct Emitter
33,1011217,110058240354,"Athens-Hocking Landfill, Inc.",Nelsonville,OH,39.45634,-82.279142,152043.25,,152043.25,,,HH,Municipal Landfills,Direct Emitter
34,1003450,110033177425,Atkinson County - S.R. 50 MSW Landfill,Willachoochee,GA,31.33676,-83.03276,53361.25,,53361.25,,,HH,Municipal Landfills,Direct Emitter
35,1005810,110043799663,Aucilla Area Solid Waste Facility,Greenville,FL,30.4607,-83.6085,56801.25,,56801.25,,,HH,Municipal Landfills,Direct Emitter
36,1003412,110041003641,BACKRIDGE LANDFILL,LA GRANGE,MO,40.0161,-91.5217,25049.75,,25049.75,,,HH,Municipal Landfills,Direct Emitter
37,1000046,110017973335,BADLANDS SANITARY LANDFILL,MORENO VALLEY,CA,33.9541,-117.1168,82236.25,,82236.25,,,HH,Municipal Landfills,Direct Emitter
38,1002896,110063276119,BAKERSFIELD METROPOLITAN SANITARY LANDFILL,Edison,CA,35.422469,-118.708138,41041.25,,41041.25,,,HH,Municipal Landfills,Direct Emitter
39,1007875,110010380346,BALDWIN COUNTY SOLID WASTE,SUMMERDALE,AL,30.443309,-87.774276,265100.25,,265100.25,,,HH,Municipal Landfills,Direct Emitter
40,1002168,110063279349,BARTHOLOMEW CO LANDFILL,COLUMBUS,IN,39.224811,-85.800619,18039.75,,18039.75,,,HH,Municipal Landfills,Direct Emitter
41,1007684,110030493357,BAYTOWN LANDFILL,BAYTOWN,TX,29.680398,-94.930647,41826.25,,41826.25,,,HH,Municipal Landfills,Direct Emitter
42,1003744,110000791590,BEECHER LANDFILL,BEECHER,IL,41.384838,-87.637077,1762.75,,1762.75,,,HH,Municipal Landfills,Direct Emitter
43,1003478,110071160515,BERKELEY COUNTY LANDFILL,MONCKS CORNER,SC,33.113872,-80.028486,69073.0,,69073.0,,,HH,Municipal Landfills,Direct Emitter
44,1005281,110060932512,BI-COUNTY SOLID WASTE MANAGEMENT SYSTEMS,Woodlawn,TN,36.538,-87.54235,166773.5,,166773.5,,,HH,Municipal Landfills,Direct Emitter
45,1006223,110060394933,BIG RIVER LANDFILL,LELAND,MS,33.3955,-90.90665,148066.5,,148066.5,,,HH,Municipal Landfills,Direct Emitter
46,1007094,110041417918,BIG RUN LANDFILL,ASHLAND,KY,38.37327,-82.75861,283730.75,,283730.75,,,HH,Municipal Landfills,Direct Emitter
47,1004354,110006263248,BIGFOOT RUN LANDFILL,MORROW,OH,39.36463,-84.168816,5342.5,,5342.5,,,HH,Municipal Landfills,Direct Emitter
48,1000477,110013946766,BILLINGS CITY LANDFILL,BILLINGS,MT,45.722949,-108.543015,137523.5,,137523.5,,,HH,Municipal Landfills,Direct Emitter
49,1011449,110000782840,BKK Corporation,West Covina,CA,34.036441,-117.902294,281537.75,,281537.75,,,HH,Municipal Landfills,Direct Emitter
50,1000287,110060998390,BLACK HAWK COUNTY SANITARY LANDFILL,WATERLOO,IA,42.41399,-92.32887,170383.25,,170383.25,,,HH,Municipal Landfills,Direct Emitter
51,1005518,110014003531,BLACK OAK LANDFILL,HARTVILLE,MO,37.2413,-92.4584,33631.25,,33631.25,,,HH,Municipal Landfills,Direct Emitter
52,1005891,110033518076,BLUE RIDGE LANDFILL,FRESNO,TX,29.555893,-95.441863,319680.5,,319680.5,,,HH,Municipal Landfills,Direct Emitter
53,1006661,110001389934,BOULDER LANDFILL,BOULDER,CO,39.950304,-105.20126,12472.0,,12472.0,,,HH,Municipal Landfills,Direct Emitter
54,1003356,110070081862,BRADLEY COUNTY LANDFILL,MCDONALD,TN,35.156568,-84.958905,232880.75,,232880.75,,,HH,Municipal Landfills,Direct Emitter
55,1004848,110020669463,BRISTOL INTEGRATED SOLID WASTE MANAGEMENT FACILITY,BRISTOL,VA,36.603075,-82.153334,10383.5,,10383.5,,,HH,Municipal Landfills,Direct Emitter
56,1007712,110013866236,BROKEN ARROW LANDFLL,BROKEN ARROW,OK,36.0851,-95.7328,4742.5,,4742.5,,,HH,Municipal Landfills,Direct Emitter
57,1004533,110034167069,BROOKINGS CITY LANDFILL,BROOKINGS,SD,44.301056,-96.790687,39034.5,,39034.5,,,HH,Municipal Landfills,Direct Emitter
58,1003543,110001738861,BROWARD COUNTY LANDFILL,FORT LAUDERDALE,FL,26.03089,-80.42299,39602.25,,39602.25,,,HH,Municipal Landfills,Direct Emitter
59,1005056,110041438708,BROWN COUNTY LANDFILL,ABERDEEN,SD,45.464865,-98.487225,54521.5,,54521.5,,,HH,Municipal Landfills,Direct Emitter
60,1004415,110012625221,"BRUNDIDGE LANDFILL, LLC",BRUNDIDGE,AL,31.7003,-85.8433,43959.25,,43959.25,,,HH,Municipal Landfills,Direct Emitter
61,1006221,110017973291,BUENA VISTA DRIVE SANITARY LANDFILL,WATSONVILLE,CA,36.91657,-121.81525,18656.25,,18656.25,,,HH,Municipal Landfills,Direct Emitter
62,1001775,110009853578,BUNCOMBE COUNTY NEW LANDFILL,ALEXANDER,NC,35.7265,-82.6356,68755.5,,68755.5,,,HH,Municipal Landfills,Direct Emitter
63,1004355,110042557890,BUTLER COUNTY LANDFILL,POPLAR BLUFF,MO,36.88588,-90.3113,36824.25,,36824.25,,,HH,Municipal Landfills,Direct Emitter
64,1012394,110071162485,Baker Pl Rd Landfill,Grovetown,GA,33.48929,-82.24489,24406.75,,24406.75,,,HH,Municipal Landfills,Direct Emitter
65,1013587,110060427765,Beatrice Area Solid Waste Agency,Beatrice,NE,40.219351,-96.768673,25895.25,,25895.25,,,HH,Municipal Landfills,Direct Emitter
66,1002901,110001749332,Bee Ridge Landfill,Sarasota,FL,27.29864,-82.39811,40070.25,,40070.25,,,HH,Municipal Landfills,Direct Emitter
67,1006218,110013967047,Billy Wright Landfill,Los Banos,CA,37.0388,-120.9729,44070.5,,44070.5,,,HH,Municipal Landfills,Direct Emitter
68,1011455,110071160039,Blossom Prairie Landfill,Blossom,TX,33.599578,-95.33954,74433.0,,74433.0,,,HH,Municipal Landfills,Direct Emitter
69,1014061,110071198524,Bondad Recycling Center and Depository,Durango,CO,37.051581,-107.865912,38503.5,,38503.5,,,HH,Municipal Landfills,Direct Emitter
70,1011956,110013926528,Boone County Sanitary Landfill,Boone,IA,42.02993,-93.91905,47094.25,,47094.25,,,HH,Municipal Landfills,Direct Emitter
71,1004808,110001861771,Bordeaux Landfill,Nashville,TN,36.175395,-86.843523,52871.5,,52871.5,,,HH,Municipal Landfills,Direct Emitter
72,1005892,110001427304,Broadhurst Environmental Landfill,Screven,GA,31.4847,-81.9898,89483.75,,89483.75,,,HH,Municipal Landfills,Direct Emitter
73,1004884,110043813969,Brownsville Municipal Landfill,Brownsville,TX,25.938869,-97.395248,116751.75,,116751.75,,,HH,Municipal Landfills,Direct Emitter
74,1005893,110013959458,C & T REGIONAL LANDFILL,LINN,TX,26.5774,-98.1854,2826.25,,2826.25,,,HH,Municipal Landfills,Direct Emitter
75,1007780,110030493375,CAMELOT LANDFILL,LEWISVILLE,TX,33.043321,-96.945276,106806.5,,106806.5,,,HH,Municipal Landfills,Direct Emitter
76,1003621,110018859458,CANADIAN VALLEY LANDFILL,SHAWNEE,OK,35.347587,-96.803468,4846.5,,4846.5,,,HH,Municipal Landfills,Direct Emitter
77,1006544,110016791480,"CANTON, CITY OF, CANTON SANITARY LANDFILL",CANTON,MS,32.59695,-90.066397,38030.75,,38030.75,,,HH,Municipal Landfills,Direct Emitter
78,1003466,110014015715,CAVE CREEK MSW LANDFILL,CAVE CREEK,AZ,33.799979,-111.992472,19615.25,,19615.25,,,HH,Municipal Landfills,Direct Emitter
79,1005820,110071161796,CENTERPOINT LANDFILL,CENTERPOINT,IN,39.476964,-86.992178,21769.0,,21769.0,,,HH,Municipal Landfills,Direct Emitter
80,1005313,110042374720,CENTRAL MAUI LANDFILL REFUSE & RECYCLING CENTER,PUUNENE,HI,20.772523,-156.327405,53209.75,,53209.75,,,HH,Municipal Landfills,Direct Emitter
81,1003514,110071161843,CENTRAL MISSOURI LANDFILL,Sedalia,MO,38.72171,-93.289139,115569.5,,115569.5,,,HH,Municipal Landfills,Direct Emitter
82,1005295,110060497298,CENTRAL SANITARY LANDFILL,NEWARK,MD,38.224046,-75.341031,112063.0,,112063.0,,,HH,Municipal Landfills,Direct Emitter
83,1003509,110007057460,CHAIN OF ROCKS RECYCLING & DISPOSAL,GRANITE CITY,IL,38.753635,-90.158264,1361.25,,1361.25,,,HH,Municipal Landfills,Direct Emitter
84,1000217,110002225976,"CHAMBERS OF MISSISSIPPI INC, CLEARVIEW ENVIRONMENTAL CONTROL FACILITY LANDFILL",LAKE,MS,32.226346,-89.372269,53244.0,,53244.0,,,HH,Municipal Landfills,Direct Emitter
85,1007813,110034132686,CHASTANG SANITARY LANDFILL,MOUNT VERNON,AL,31.0451,-88.0357,14076.5,,14076.5,,,HH,Municipal Landfills,Direct Emitter
86,1005583,110071036262,CHEYENNE LANDFILL,CHEYENNE,WY,41.14614,-105.00941,67135.0,,67135.0,,,HH,Municipal Landfills,Direct Emitter
87,1002992,110001154660,CHIQUITA CANYON SLF,CASTAIC,CA,34.42806,-118.64661,175833.25,,175833.25,,,HH,Municipal Landfills,Direct Emitter
88,1010378,110007044215,CHOCTAW ROAD LANDFILL,FRANKLINTON,LA,30.8439,-90.0443,44601.0,,44601.0,,,HH,Municipal Landfills,Direct Emitter
89,1002232,110071161958,CHRIN BROTHERS LANDFILL,EASTON,PA,40.663618,-75.231488,69673.75,,69673.75,,,HH,Municipal Landfills,Direct Emitter
90,1003957,110070890904,CITRUS CO CENTRAL LANDFILL,LECANTO,FL,28.93,-82.49,104463.25,,104463.25,,,HH,Municipal Landfills,Direct Emitter
91,1007708,110014055501,CITY & COUNTY OF HONOLULU - WAIMANALO GULCH MSWLF,KAPOLEI,HI,21.344189,-158.117664,52420.0,,52420.0,,,HH,Municipal Landfills,Direct Emitter
92,1005594,110060422760,CITY OF ALBEMARLE LANDFILL,ALBEMARLE,NC,35.3173,-80.1658,60786.25,,60786.25,,,HH,Municipal Landfills,Direct Emitter
93,1006350,110030747654,CITY OF AMARILLO LANDFILL,AMARILLO,TX,35.22585,-102.01932,108133.0,,108133.0,,,HH,Municipal Landfills,Direct Emitter
94,1002757,110071161695,CITY OF BATON ROUGE/EBRP RENEWABLE ENERGY CENTER,BATON ROUGE,LA,30.55192,-91.19755,55964.5,,55964.5,,,HH,Municipal Landfills,Direct Emitter
95,1002065,110030493464,CITY OF BEAUMONT LANDFILL,BEAUMONT,TX,30.035647,-94.13335,260009.75,,260009.75,,,HH,Municipal Landfills,Direct Emitter
96,1004159,110043806049,CITY OF CHATTANOOGA BIRCHWOOD LANDFILL,HARRISON,TN,35.192631,-85.082397,48598.25,,48598.25,,,HH,Municipal Landfills,Direct Emitter
97,1006286,110071160983,CITY OF CHATTANOOGA SUMMIT LANDFILL,OOLTEWAH,TN,35.05226,-85.0902,65651.0,,65651.0,,,HH,Municipal Landfills,Direct Emitter
98,1005318,110071161060,CITY OF CONWAY LANDFILL & MRF,CONWAY,AR,35.3309,-92.76255,96575.5,,96575.5,,,HH,Municipal Landfills,Direct Emitter
99,1002351,110034710436,CITY OF CORSICANA LANDFILL,CORSICANA,TX,32.099681,-96.416064,102502.0,,102502.0,,,HH,Municipal Landfills,Direct Emitter
100,1000372,110043814673,CITY OF DENTON LANDFILL,DENTON,TX,33.191973,-97.085008,97841.5,,97841.5,,,HH,Municipal Landfills,Direct Emitter
101,1007276,110034627367,CITY OF EDINBURG LANDFILL,EDINBURG,TX,26.398165,-98.129239,133863.0,,133863.0,,,HH,Municipal Landfills,Direct Emitter
102,1001614,110001505176,CITY OF FARGO LANDFILL,FARGO,ND,46.88357,-96.86716,233136.0,,233136.0,,,HH,Municipal Landfills,Direct Emitter
103,1004132,110043816136,CITY OF FLAGSTAFF - CINDER LAKE LANDFILL,FLAGSTAFF,AZ,35.30836,-111.51733,108377.25,,108377.25,,,HH,Municipal Landfills,Direct Emitter
104,1006224,110043781921,CITY OF FORT WORTH SOUTHEAST LANDFILL,KENNEDALE,TX,32.64838,-97.23834,147299.25,,147299.25,,,HH,Municipal Landfills,Direct Emitter
105,1000370,110015742829,CITY OF GARLAND CASTLE DRIVE LANDFILL,GARLAND,TX,32.933331,-96.583893,59904.75,,59904.75,,,HH,Municipal Landfills,Direct Emitter
106,1003683,110002373486,CITY OF GLENDALE - LANDFILL,GLENDALE,AZ,33.53645,-112.30267,44455.25,,44455.25,,,HH,Municipal Landfills,Direct Emitter
107,1000090,110070393975,CITY OF GRAND PRAIRIE LANDFILL,GRAND PRAIRIE,TX,32.771292,-96.96002,95546.0,,95546.0,,,HH,Municipal Landfills,Direct Emitter
108,1006978,110009717039,CITY OF GREENSBORO WHITE STREET LANDFILL,GREENSBORO,NC,36.1089,-79.72148,206466.75,,206466.75,,,HH,Municipal Landfills,Direct Emitter
109,1002340,110013947881,CITY OF LA GRANGE LANDFILL,LAGRANGE,GA,33.0478,-84.9557,8596.5,,8596.5,,,HH,Municipal Landfills,Direct Emitter
110,1004868,110017397137,CITY OF LOMPOC SANITARY LANDFILL,LOMPOC,CA,34.6254,-120.4831,15424.25,,15424.25,,,HH,Municipal Landfills,Direct Emitter
111,1004261,110071161804,CITY OF PHOENIX - SKUNK CREEK LANDFILL,PHOENIX,AZ,33.71267,-112.12774,18455.5,,18455.5,,,HH,Municipal Landfills,Direct Emitter
112,1006280,110002574633,CITY OF PHOENIX 27TH AVE LANDFILL,PHOENIX,AZ,33.4192,-112.11763,31089.5,,31089.5,,,HH,Municipal Landfills,Direct Emitter
113,1002700,110030747672,CITY OF SNYDER LANDFILL,SNYDER,TX,32.683427,-100.81364,33254.0,,33254.0,,,HH,Municipal Landfills,Direct Emitter
114,1007290,110013947854,CITY OF TIFTON / OMEGA / ELDORADO ROAD LF,TIFTON,GA,31.35565,-83.535512,60942.5,,60942.5,,,HH,Municipal Landfills,Direct Emitter
115,1004364,110012694218,CITY OF WATSONVILLE LANDFILL,WATSONVILLE,CA,36.91139,-121.82969,3676.5,,3676.5,,,HH,Municipal Landfills,Direct Emitter
116,1007932,110001853628,CITY SAND & LANDFILL INC,SUMPTER TWP,MI,42.110086,-83.494311,9899.25,,9899.25,,,HH,Municipal Landfills,Direct Emitter
117,1004759,110059691864,CLARK-FLOYD LANDFILL,BORDEN,IN,38.456,-85.838,24618.75,,24618.75,,,HH,Municipal Landfills,Direct Emitter
118,1005825,110071162427,CLEVELAND COUNTY LANDFILL,SHELBY,NC,35.300926,-81.545135,139753.0,,139753.0,,,HH,Municipal Landfills,Direct Emitter
119,1005316,110054207443,CLINT LANDFILL,EL PASO,TX,31.5981,-106.1723,236832.75,,236832.75,,,HH,Municipal Landfills,Direct Emitter
120,1004223,110022731098,CLOVIS REGIONAL SOLID WASTE FACILITY,CLOVIS,NM,34.38993,-103.17858,46126.25,,46126.25,,,HH,Municipal Landfills,Direct Emitter
121,1003646,110070724783,COASTAL PLAINS RECYCLING AND DISPOSAL FACILITY,ALVIN,TX,29.409783,-95.196826,79536.25,,79536.25,,,HH,Municipal Landfills,Direct Emitter
122,1006186,110041647411,COFFEE LANDFILL,ELBA,AL,31.511427,-85.995735,172618.25,,172618.25,,,HH,Municipal Landfills,Direct Emitter
123,1007054,110071161152,COFFIN BUTTE LANDFILL,CORVALLIS,OR,44.69932,-123.22359,32727.25,,32727.25,,,HH,Municipal Landfills,Direct Emitter
124,1006322,110001173989,COLD CANYON LANDFILL SOLID WASTE DS,SAN LUIS OBISPO,CA,35.189859,-120.602877,32133.5,,32133.5,,,HH,Municipal Landfills,Direct Emitter
125,1006348,110020580771,COLES COUNTY LANDFILL,CHARLESTON,IL,39.495529,-88.288727,1548.75,,1548.75,,,HH,Municipal Landfills,Direct Emitter
126,1002510,110013981824,COLONIAL LANDFILL,SORRENTO,LA,30.149365,-90.872875,25822.5,,25822.5,,,HH,Municipal Landfills,Direct Emitter
127,1004691,110012694557,COLTON SANITARY LANDFILL,COLTON,CA,34.045505,-117.336573,21923.0,,21923.0,,,HH,Municipal Landfills,Direct Emitter
128,1003959,110014013824,COLUMBUS SCHATULGA ROAD SANITARY LF,COLUMBUS,GA,32.497472,-84.866462,30553.0,,30553.0,,,HH,Municipal Landfills,Direct Emitter
129,1004224,110043793687,CORRALITOS REGIONAL LANDFILL,LAS CRUCES,NM,32.258796,-107.027915,21298.5,,21298.5,,,HH,Municipal Landfills,Direct Emitter
130,1007579,110015830591,COSHOCTON LANDFILL INC *,COSHOCTON,OH,40.223,-81.826,17119.75,,17119.75,,,HH,Municipal Landfills,Direct Emitter
131,1002104,110061008804,COYOTE CANYON SANITARY LANDFILL,Newport Beach,CA,33.617152,-117.826108,55470.25,,55470.25,,,HH,Municipal Landfills,Direct Emitter
132,1005397,110022407956,CRAIGHEAD COUNTY SOLID WASTE DISPOSAL,JONESBORO,AR,35.71958,-90.684793,63174.5,,63174.5,,,HH,Municipal Landfills,Direct Emitter
133,1005356,110071162088,CROOK COUNTY LANDFILL,PRINEVILLE,OR,44.298198,-120.915862,23520.25,,23520.25,,,HH,Municipal Landfills,Direct Emitter
134,1002644,110008142198,CSC DISPOSAL AND LANDFILL,AVALON,TX,32.223334,-96.787501,86839.25,,86839.25,,,HH,Municipal Landfills,Direct Emitter
135,1007902,110013857807,CUYAHOGA REGIONAL SANITARY LANDFILL,SOLON,OH,41.37403,-81.47463,8908.75,,8908.75,,,HH,Municipal Landfills,Direct Emitter
136,1005482,110071159907,Caliche Canyon Landfill,Lubbock,TX,33.655501,-101.775171,67670.75,,67670.75,,,HH,Municipal Landfills,Direct Emitter
137,1010207,110055519826,California Street Landfill,City of Redlands,CA,34.08907,-117.21742,6557.75,,6557.75,,,HH,Municipal Landfills,Direct Emitter
138,1003933,110012689046,Camden County SR 110 MSW Landfill,Woodbine,GA,30.963831,-81.722855,98893.25,,98893.25,,,HH,Municipal Landfills,Direct Emitter
139,1004128,110024523461,Cedar Grove Landfill,Barnesville,GA,33.08303,-84.20562,62685.75,,62685.75,,,HH,Municipal Landfills,Direct Emitter
140,1001766,110002439601,Cedar Rapids/Linn County Solid Waste Agency Site #1,CEDAR RAPIDS,IA,42.085004,-91.556144,59327.25,,59327.25,,,HH,Municipal Landfills,Direct Emitter
141,1002244,110043795514,CenterPoint Landfill,PRAGUE,OK,35.543891,-96.647746,40055.5,,40055.5,,,HH,Municipal Landfills,Direct Emitter
142,1002899,110009074090,Central County Solid Waste Disposal Complex,Nokomis,FL,27.1973,-82.3893,147551.25,,147551.25,,,HH,Municipal Landfills,Direct Emitter
143,1007707,110060396398,Central Landfill,McNeill,MS,30.7073,-89.6017,71633.75,,71633.75,,,HH,Municipal Landfills,Direct Emitter
144,1008252,110070081984,Champ Landfill,Maryland Heights,MO,38.737417,-90.461032,224593.75,,224593.75,,,HH,Municipal Landfills,Direct Emitter
145,1003099,110070081851,Charlotte Motor Speedway Landfill V,CONCORD,NC,35.345247,-80.682062,181540.75,,181540.75,,,HH,Municipal Landfills,Direct Emitter
146,1002509,110013317035,Charter Waste Landfill,Odessa,TX,31.745833,-102.546661,138367.5,,138367.5,,,HH,Municipal Landfills,Direct Emitter
147,1007015,110066177130,Chateau Fresno Landfill,Fresno,CA,36.68793,-119.94582,1618.0,,1618.0,,,HH,Municipal Landfills,Direct Emitter
148,1011669,110065118492,City of Clovis Landfill,Clovis,CA,36.939808,-119.688798,16766.0,,16766.0,,,HH,Municipal Landfills,Direct Emitter
149,1010957,110056413082,City of Dothan Sanitary Landfill,Dothan,AL,31.24037,-85.35688,131949.5,,131949.5,,,HH,Municipal Landfills,Direct Emitter
150,1004423,110071159214,City of Greenville Closed Landfill,Greenville,SC,34.80839,-82.334338,27980.0,,27980.0,,,HH,Municipal Landfills,Direct Emitter
151,1006634,110043972065,City of Irving/ Hunter Ferrell Landfill,Irving,TX,32.81353,-96.95529,141220.5,,141220.5,,,HH,Municipal Landfills,Direct Emitter
152,1004460,110062120164,City of Laredo Landfill,Laredo,TX,27.49694,-99.40444,178408.75,,178408.75,,,HH,Municipal Landfills,Direct Emitter
153,1002538,110039868168,City of Midland MSW Landfill,Midland,TX,32.00004,-102.07569,129419.25,,129419.25,,,HH,Municipal Landfills,Direct Emitter
154,1002457,110031222102,City of Nacogdoches Landfill,Nacogdoches,TX,31.648515,-94.681272,69033.0,,69033.0,,,HH,Municipal Landfills,Direct Emitter
155,1014285,110019914020,City of Newton Sanitary Landfill,Newton,IA,41.67033,-93.07646,27004.75,,27004.75,,,HH,Municipal Landfills,Direct Emitter
156,1002855,110071161336,City of Okmulgee Landfill,Okmulgee,OK,35.603247,-95.890227,31979.25,,31979.25,,,HH,Municipal Landfills,Direct Emitter
157,1002705,110071161221,City of Pampa Landfill,Pampa,TX,35.575,-100.9333,29598.0,,29598.0,,,HH,Municipal Landfills,Direct Emitter
158,1005665,110043801712,City of Port Arthur Landfill,Beaumont,TX,29.933336,-93.935038,134270.5,,134270.5,,,HH,Municipal Landfills,Direct Emitter
159,1003963,110071160359,City of Sallisaw Solid Waste Disposal Facility,Gans,OK,35.37379,-94.758804,71497.25,,71497.25,,,HH,Municipal Landfills,Direct Emitter
160,1003374,110043802347,City of Thomasville Municipal Solid Waste Landfill,Thomasville,GA,30.8037,-83.9129,106757.5,,106757.5,,,HH,Municipal Landfills,Direct Emitter
161,1007802,110060903624,City of Victoria Landfill,Bloomington,TX,28.6934,-96.9067,15783.0,,15783.0,,,HH,Municipal Landfills,Direct Emitter
162,1002964,110063277733,City of Wichita Falls Landfill,Wichita Falls,TX,33.87365,-98.65477,146800.25,,146800.25,,,HH,Municipal Landfills,Direct Emitter
163,1003854,110001388640,Clayton County SR 3 Lovejoy Landfill,Lovejoy,GA,33.4418,-84.3076,40358.25,,40358.25,,,HH,Municipal Landfills,Direct Emitter
164,1005462,110071159901,Closed City of Gloversville Landfill,Gloversville,NY,43.04878,-74.3107,16540.5,,16540.5,,,HH,Municipal Landfills,Direct Emitter
165,1003035,110043802597,Coastal Regional Solid Waste Management Authority,New Bern,NC,34.943667,-76.948346,129028.0,,129028.0,,,HH,Municipal Landfills,Direct Emitter
166,1003863,110071161276,Columbus Pine Grove MSWLF,Columbus,GA,32.49681,-84.86263,102198.25,,102198.25,,,HH,Municipal Landfills,Direct Emitter
167,1007575,110071161415,Conroe 6 Landfill,Conroe,TX,30.31203,-95.425376,1073.75,,1073.75,,,HH,Municipal Landfills,Direct Emitter
168,1009669,110055517481,Crisp County Landfill,Cordele,GA,31.955481,-83.7778,53266.75,,53266.75,,,HH,Municipal Landfills,Direct Emitter
169,1007382,110043810524,Cullman Environmental,Cullman,AL,34.0244,-86.8996,72246.75,,72246.75,,,HH,Municipal Landfills,Direct Emitter
170,1007736,110043970370,Cummings Road Landfill,Eureka,CA,40.76235,-124.08941,15563.25,,15563.25,,,HH,Municipal Landfills,Direct Emitter
171,1002863,110070103428,DALTON WHITFIELD REGIONAL SW MANAGEMENT,DALTON,GA,34.65119,-84.95693,147478.5,,147478.5,,,HH,Municipal Landfills,Direct Emitter
172,1002182,110013928624,DE SOLID WASTE AUTHORITY CENTRAL LANDFILL,FELTON,DE,39.03237,-75.72793,8162.75,,8162.75,,,HH,Municipal Landfills,Direct Emitter
173,1002010,110007354308,DE SOLID WASTE AUTHORITY CHERRY ISLAND,WILMINGTON,DE,39.732754,-75.517487,230874.25,,230874.25,,,HH,Municipal Landfills,Direct Emitter
174,1004897,110001409565,DE SOLID WASTE AUTHORITY PIGEON POINT,NEW CASTLE,DE,39.70551,-75.53284,19522.5,,19522.5,,,HH,Municipal Landfills,Direct Emitter
175,1002183,110054586587,DE SOLID WASTE AUTHORITY SOUTHERN,GEORGETOWN,DE,38.59563,-75.43413,23660.5,,23660.5,,,HH,Municipal Landfills,Direct Emitter
176,1003740,110038104164,DEANS BRIDGE RD MSW LANDFILL,BLYTHE,GA,33.35271,-82.1441,266009.25,,266009.25,,,HH,Municipal Landfills,Direct Emitter
177,1001101,110034171054,DEFIANCE COUNTY LANDFILL,DEFIANCE,OH,41.251852,-84.41227,75956.5,,75956.5,,,HH,Municipal Landfills,Direct Emitter
178,1005633,110001391690,DENVER REGIONAL LANDFILL,ERIE,CO,40.024535,-105.027726,5247.75,,5247.75,,,HH,Municipal Landfills,Direct Emitter
179,1003548,110071160536,DIVISION OF WILDLIFE RESOURCES LEEKAY LANDFILL,SALT LAKE CITY,UT,40.726144,-112.031565,56702.75,,56702.75,,,HH,Municipal Landfills,Direct Emitter
180,1000522,110010293967,DOUGLAS COUNTY LANDFILL,OMAHA,NE,41.33578,-96.1119,31157.5,,31157.5,,,HH,Municipal Landfills,Direct Emitter
181,1003694,110060454716,DOZIT COMPANY LANDFILL,MORGANFIELD,KY,37.738458,-87.97591,47136.25,,47136.25,,,HH,Municipal Landfills,Direct Emitter
182,1004204,110043787015,Davidson County Integrated Solid Waste Management Dept.,Thomasville,NC,35.85308,-80.17695,68374.25,,68374.25,,,HH,Municipal Landfills,Direct Emitter
183,1011663,110063745069,Decatur County Solid Waste Facility,Attapulgus,GA,30.749082,-84.4838,71561.75,,71561.75,,,HH,Municipal Landfills,Direct Emitter
184,1010661,110064870974,Decatur-Morgan County Regional MSW Landfill,Trinty,AL,34.625853,-87.100856,193264.25,,193264.25,,,HH,Municipal Landfills,Direct Emitter
185,1007700,110001391690,Denver Regional North Landfill,Erie,CO,40.024535,-105.027726,729.5,,729.5,,,HH,Municipal Landfills,Direct Emitter
186,1013659,110070716030,Disposal and Recycling Services of Lunenburg,Lunenburg,VA,36.924504,-78.24528,97753.5,,97753.5,,,HH,Municipal Landfills,Direct Emitter
187,1003887,110034141051,Dougherty County - Fleming/Gaissert Rd Landfill,Albany,GA,31.5357,-84.0244,107316.5,,107316.5,,,HH,Municipal Landfills,Direct Emitter
188,1013630,,Durham Regional Landfill,Florence,AZ,32.678199,-111.292799,55138.5,,55138.5,,,HH,Municipal Landfills,Direct Emitter
189,1006389,110063276404,Dyer Boulevard Landfill (Dyer Park),West Palm Beach,FL,26.78417,-80.11914,32418.75,,32418.75,,,HH,Municipal Landfills,Direct Emitter
190,1005844,110032729894,EAGLE COUNTY LANDFILL,WOLCOTT,CO,39.752942,-106.717567,58801.75,,58801.75,,,HH,Municipal Landfills,Direct Emitter
191,1003710,110014327905,"EAGLE POINT LANDFILL, LLC",BALL GROUND,GA,34.32319,-84.24657,121939.0,,121939.0,,,HH,Municipal Landfills,Direct Emitter
192,1005795,110014003390,EAGLE RIDGE LANDFILL,Bowling Green,MO,39.392972,-91.212916,142871.25,,142871.25,,,HH,Municipal Landfills,Direct Emitter
193,1003101,110060467926,EAST CAROLINA REGIONAL LANDFILL,AULANDER,NC,36.11558,-77.07097,95345.0,,95345.0,,,HH,Municipal Landfills,Direct Emitter
194,1007018,110001712816,"EASTERN AREA LANDFILL, BIRMINGHAM",BIRMINGHAM,AL,33.5972,-86.629,89355.5,,89355.5,,,HH,Municipal Landfills,Direct Emitter
195,1007332,110060460781,ELKHART COUNTY LANDFILL,ELKHART,IN,41.6335,-85.9775,24499.75,,24499.75,,,HH,Municipal Landfills,Direct Emitter
196,1004256,110018863023,"ETC of Georgia, LLC - Grady Road Landfill",Rockmart,GA,33.99554,-85.16728,88382.0,,88382.0,,,HH,Municipal Landfills,Direct Emitter
197,1011464,110054101716,East Regional Landfill,Bennett,CO,39.842346,-104.489113,51976.25,,51976.25,,,HH,Municipal Landfills,Direct Emitter
198,1011676,110017966218,Eastlake Sanitary Landfill,Clearlake,CA,38.954271,-122.611851,13889.25,,13889.25,,,HH,Municipal Landfills,Direct Emitter
199,1007858,110005067729,Eastside/Texas,Fort Worth,TX,32.76655,-97.26368,22825.75,,22825.75,,,HH,Municipal Landfills,Direct Emitter
200,1014391,110018140493,Eco Hill Landfill,Atkinson,IL,41.407503,-90.003647,180412.75,,180412.75,,,HH,Municipal Landfills,Direct Emitter
201,1006390,110000802640,Edgeboro Landfill,East Brunswick,NJ,40.4735,-74.3862,7228.5,,7228.5,,,HH,Municipal Landfills,Direct Emitter
202,1001581,110071161191,Edgemere Landfill,Far Rockaway,NY,40.602435,-73.762495,23779.25,,23779.25,,,HH,Municipal Landfills,Direct Emitter
203,1002473,110034733518,El Centro Landfill,Robstown,TX,27.724972,-97.652075,28264.75,,28264.75,,,HH,Municipal Landfills,Direct Emitter
204,1007630,110071161427,El Coqui Landfill,Humacao,PR,18.132987,-65.820394,103882.5,,103882.5,,,HH,Municipal Landfills,Direct Emitter
205,1003814,110012694281,FINK ROAD LANDFILL,CROWS LANDING,CA,37.39719,-121.13969,26071.25,,26071.25,,,HH,Municipal Landfills,Direct Emitter
206,1004308,110012609338,FLYING CLOUD SANITARY LANDFILL,EDEN PRAIRIE,MN,44.826193,-93.447839,18242.25,,18242.25,,,HH,Municipal Landfills,Direct Emitter
207,1006693,110043792508,FM 812 Landfill,Austin,TX,30.15541,-97.67434,30199.25,,30199.25,,,HH,Municipal Landfills,Direct Emitter
208,1006758,110071160976,FOOTHILLS LANDFILL,GOLDEN,CO,39.859268,-105.234093,29470.75,,29470.75,,,HH,Municipal Landfills,Direct Emitter
209,1004309,110041014648,FOREST VIEW LANDFILL,KANSAS CITY,KS,39.112098,-94.694105,3618.0,,3618.0,,,HH,Municipal Landfills,Direct Emitter
210,1002321,110070243917,FORT BEND REGIONAL LANDFILL,NEEDVILLE,TX,29.39529,-95.7245,485939.75,,485939.75,,,HH,Municipal Landfills,Direct Emitter
211,1006026,110001700240,FORT SMITH SANITARY LANDFILL,FORT SMITH,AR,35.290944,-94.369694,64106.25,,64106.25,,,HH,Municipal Landfills,Direct Emitter
212,1004561,110002456850,FORT WORTH REGIONAL LANDFILL,FORT WORTH,TX,32.789533,-97.242917,2637.0,,2637.0,,,HH,Municipal Landfills,Direct Emitter
213,1004010,110000610116,FORWARD LANDFILL,MANTECA,CA,37.872415,-121.18885,95598.25,,95598.25,,,HH,Municipal Landfills,Direct Emitter
214,1000881,110049839109,FRANKLIN COUNTY LANDFILL,ROCKY MOUNT,VA,36.99067,-79.90194,61403.5,,61403.5,,,HH,Municipal Landfills,Direct Emitter
215,1003202,110038017703,Fairmead Solid Waste Disposal Site,CHOWCHILLA,CA,37.0656,-120.1983,66763.75,,66763.75,,,HH,Municipal Landfills,Direct Emitter
216,1007044,110034168512,Foothills Environmental,Lenoir,NC,35.914488,-81.593527,54764.5,,54764.5,,,HH,Municipal Landfills,Direct Emitter
217,1004587,110071160598,Former Town of Babylon Landfill,WEST BABYLON,NY,40.718142,-73.353185,29738.5,,29738.5,,,HH,Municipal Landfills,Direct Emitter
218,1002107,110017973237,Frank R. Bowerman Landfill,IRVINE,CA,33.7183,-117.7023,397001.5,,397001.5,,,HH,Municipal Landfills,Direct Emitter
219,1007007,110043800964,Fulton County Merk Miles Road Landfill,College Park Road,GA,33.6688,-84.5701,17929.0,,17929.0,,,HH,Municipal Landfills,Direct Emitter
220,1006805,110011048179,GALLATIN COUNTY LOGAN LANDFILL,MANHATTAN,MT,45.8725,-111.40511,51203.75,,51203.75,,,HH,Municipal Landfills,Direct Emitter
221,1005894,110024869445,GALVESTON COUNTY LANDFILL,ALTA LOMA,TX,29.387909,-95.055889,51024.75,,51024.75,,,HH,Municipal Landfills,Direct Emitter
222,1005137,110056321822,GASTON COUNTY LANDFILL,DALLAS,NC,35.38868,-81.17202,61837.75,,61837.75,,,HH,Municipal Landfills,Direct Emitter
223,1003813,110066291505,GEER ROAD LANDFILL,MODESTO,CA,37.625428,-120.847643,14064.5,,14064.5,,,HH,Municipal Landfills,Direct Emitter
224,1005973,110009935035,GLASGOW LANDFILL,GLASGOW,KY,36.988889,-85.965,124355.5,,124355.5,,,HH,Municipal Landfills,Direct Emitter
225,1007685,110064857061,GRANBY SANITARY LANDFILL,GRANBY,MA,42.22128,-72.54598,4731.5,,4731.5,,,HH,Municipal Landfills,Direct Emitter
226,1007160,110063281434,GRANT CNTY EPHRATA LANDFILL 1,EPHRATA,WA,47.26597,-119.55494,44946.25,,44946.25,,,HH,Municipal Landfills,Direct Emitter
227,1005895,110035783872,GREENWOOD FARMS LANDFILL,TYLER,TX,32.37343,-95.18784,57393.0,,57393.0,,,HH,Municipal Landfills,Direct Emitter
228,1005478,110040494523,Gary Sanitary Closed Landfill,Gary,IN,41.5837,-87.4089,19419.0,,19419.0,,,HH,Municipal Landfills,Direct Emitter
229,1003528,110007769316,Georgetown County Landfill,Georgetown,SC,33.45326,-79.31388,67594.5,,67594.5,,,HH,Municipal Landfills,Direct Emitter
230,1002004,110009682076,Glen Burnie Landfill,Glen Burnie,MD,39.18666,-76.60932,11474.25,,11474.25,,,HH,Municipal Landfills,Direct Emitter
231,1002475,110033221172,Golden Triangle Landfill,Beaumont,TX,29.99487,-94.16929,49087.5,,49087.5,,,HH,Municipal Landfills,Direct Emitter
232,1003333,110063626526,Gordon County (Redbone Ridges) Landfill,Ranger,GA,34.563372,-84.780442,218048.25,,218048.25,,,HH,Municipal Landfills,Direct Emitter
233,1003039,110010366353,Greenwood County Landfills,Greenwood,SC,34.2006,-82.0781,59725.25,,59725.25,,,HH,Municipal Landfills,Direct Emitter
234,1007991,110038103441,Gulf Coast RDF,FORT MYERS,FL,26.603184,-81.768787,16629.25,,16629.25,,,HH,Municipal Landfills,Direct Emitter
235,1006858,110038643956,Gun Club Road Landfill,Atlanta,GA,33.7937,-84.4607,23307.25,,23307.25,,,HH,Municipal Landfills,Direct Emitter
236,1007550,110028031546,HALIFAX LANDFILL,HALIFAX,MA,41.9923,-70.89789,994.5,,994.5,,,HH,Municipal Landfills,Direct Emitter
237,1003137,110007123184,HANES MILL ROAD LANDFILL,WINSTON-SALEM,NC,36.189037,-80.287502,39407.25,,39407.25,,,HH,Municipal Landfills,Direct Emitter
238,1004119,110011155034,HAROLD J LANDRY LANDFILL,BERWICK,LA,29.6787,-91.2414,115041.75,,115041.75,,,HH,Municipal Landfills,Direct Emitter
239,1002008,110005618545,HERNANDO COUNTY NW LANDFILL,BROOKSVILLE,FL,28.671706,-82.486667,131765.5,,131765.5,,,HH,Municipal Landfills,Direct Emitter
240,1004559,110007357109,HICKORY RIDGE LANDFILL,CONLEY,GA,33.65955,-84.33589,9318.75,,9318.75,,,HH,Municipal Landfills,Direct Emitter
241,1003283,110009934517,HOPKINS CO REGIONAL LANDFILL - BITUMINOU,WHITE PLAINS,KY,37.151972,-87.395489,68486.5,,68486.5,,,HH,Municipal Landfills,Direct Emitter
242,1003983,110007357458,HOUSTON COUNTY PUBLIC WORKS DEPARTMENT,KATHLEEN,GA,32.3996,-83.5509,69972.5,,69972.5,,,HH,Municipal Landfills,Direct Emitter
243,1003540,110001848323,HURON LANDFILL CORPORATION,BAD AXE,MI,43.71744,-83.05832,64992.5,,64992.5,,,HH,Municipal Landfills,Direct Emitter
244,1011008,110070602820,Habersham County - S.R.-13 Municipal Solid Waste Landfill,Mt. Airy,GA,34.55482,-83.46006,33680.25,,33680.25,,,HH,Municipal Landfills,Direct Emitter
245,1003972,110043790939,Hall County Candler Road MSWLF,Gainesville,GA,34.24862,-83.79906,96230.25,,96230.25,,,HH,Municipal Landfills,Direct Emitter
246,1007240,110009934580,Hardin County Landfill,Elizabethtown,KY,37.72708,-85.724579,37476.75,,37476.75,,,HH,Municipal Landfills,Direct Emitter
247,1004384,110012556894,Hidden Valley Landfill,Puyallup,WA,47.095,-122.2878,4171.75,,4171.75,,,HH,Municipal Landfills,Direct Emitter
248,1006216,110043972804,Highway 59 Landfill,Merced,CA,37.3939,-120.4981,19093.0,,19093.0,,,HH,Municipal Landfills,Direct Emitter
249,1003614,110071161428,Hillside Landfill,Sherman,TX,33.580772,-96.534544,18169.5,,18169.5,,,HH,Municipal Landfills,Direct Emitter
250,1007090,110037069720,Horn Rapids Landfill,Richland,WA,46.3432,-119.346,39371.75,,39371.75,,,HH,Municipal Landfills,Direct Emitter
251,1002110,110020674796,I-95 LANDFILL,LORTON,VA,38.690583,-77.237391,18891.5,,18891.5,,,HH,Municipal Landfills,Direct Emitter
252,1006545,110033728330,IESI Hardin County Landfill,Kountze,TX,30.341358,-94.3567,30888.75,,30888.75,,,HH,Municipal Landfills,Direct Emitter
253,1006064,110017763954,IESI TIMBERLANE LANDFILL,OAKDALE,LA,30.869381,-92.610993,35963.25,,35963.25,,,HH,Municipal Landfills,Direct Emitter
254,1002588,110043795195,INDIAN RIVER COUNTY LANDFILL,VERO BEACH,FL,27.579974,-80.480171,38682.25,,38682.25,,,HH,Municipal Landfills,Direct Emitter
255,1003612,110013373278,IRONWOOD LANDFILL,FLORENCE,AZ,33.00781,-111.43122,26074.5,,26074.5,,,HH,Municipal Landfills,Direct Emitter
256,1002081,110009312387,J. C. Elliott Landfill and Transfer Station,CORPUS CHRISTI,TX,27.703602,-97.447277,39960.75,,39960.75,,,HH,Municipal Landfills,Direct Emitter
257,1004328,110071162436,JANESVILLE CITY/ROCK COUNTY LANDFILL,JANESVILLE,WI,42.68186,-89.02731,143957.5,,143957.5,,,HH,Municipal Landfills,Direct Emitter
258,1003615,110011376956,JEFFERSON COUNTY LANDFILL,PINE BLUFF,AR,34.339528,-92.185611,56481.75,,56481.75,,,HH,Municipal Landfills,Direct Emitter
259,1002476,110063666750,JEFFERSON DAVIS PARISH LANDFILL,WELSH,LA,30.271457,-92.860239,59828.25,,59828.25,,,HH,Municipal Landfills,Direct Emitter
260,1007128,110012694307,JOHNSON CANYON SANITARY LANDFILL,GONZALES,CA,36.51552,-121.4342,75222.0,,75222.0,,,HH,Municipal Landfills,Direct Emitter
261,1004252,110041518033,JOHNSTON COUNTY MSW LANDFILL,SMITHFIELD,NC,35.511016,-78.429316,99816.5,,99816.5,,,HH,Municipal Landfills,Direct Emitter
262,1007711,110001864466,Jackson Madison County LF,Jackson,TN,35.58951,-88.876253,28605.5,,28605.5,,,HH,Municipal Landfills,Direct Emitter
263,1004014,110071160088,Jefferson County Landfill No.1,Gardendale,AL,33.70848,-86.86462,228588.0,,228588.0,,,HH,Municipal Landfills,Direct Emitter
264,1005680,110043785927,Jefferson County Landfill No.2,Pinson,AL,33.709435,-86.711856,36144.25,,36144.25,,,HH,Municipal Landfills,Direct Emitter
265,1006418,110018422447,KANKAKEE RDF,CHEBANSE,IL,41.029754,-87.86591,657.5,,657.5,,,HH,Municipal Landfills,Direct Emitter
266,1004011,110001163053,KELLER CANYON LANDFILL,PITTSBURG,CA,38.006584,-121.941018,133389.5,,133389.5,,,HH,Municipal Landfills,Direct Emitter
267,1003464,110071159949,KENT COUNTY DPW SOUTH KENT LANDFILL,BYRON CENTER,MI,42.77767,-85.67816,144042.75,,144042.75,,,HH,Municipal Landfills,Direct Emitter
268,1006300,110001911851,KING AND QUEEN LANDFILL,LITTLE PLYMOUTH,VA,37.6673,-76.7675,105167.25,,105167.25,,,HH,Municipal Landfills,Direct Emitter
269,1003232,110071160840,KNOTT PIT LANDFILL,BEND,OR,44.015414,-121.259055,70521.25,,70521.25,,,HH,Municipal Landfills,Direct Emitter
270,1001595,110071161216,Kapaa and Kalaheo Sanitary Landfills,Kailua,HI,21.377625,-157.76796,1868.0,,1868.0,,,HH,Municipal Landfills,Direct Emitter
271,1000216,110071161347,Kekaha Landfill,Kekaha,HI,21.975454,-159.73786,21821.75,,21821.75,,,HH,Municipal Landfills,Direct Emitter
272,1000365,110064780349,Kersey Valley MSW Landfill,High Point,NC,35.95637,-79.928139,104607.25,,104607.25,,,HH,Municipal Landfills,Direct Emitter
273,1004399,110060899425,Kimble Sanitary Landfill,Dover,OH,40.51139,-81.54137,62266.75,,62266.75,,,HH,Municipal Landfills,Direct Emitter
274,1011716,110014018785,Kings Waste and Recycling Authority,Hanford,CA,36.3135,-119.597306,13255.75,,13255.75,,,HH,Municipal Landfills,Direct Emitter
275,1007817,110071159471,Kirby Canyon Recycling & Disposal Facility,Morgan Hill,CA,37.218771,-121.582664,86693.25,,86693.25,,,HH,Municipal Landfills,Direct Emitter
276,1002132,110071161369,LA SALLE/GRANT PARISH SANITARY LANDFILL,JENA,LA,31.798037,-92.177289,92500.25,,92500.25,,,HH,Municipal Landfills,Direct Emitter
277,1000176,110043969738,LAKE COUNTY CENTRAL PHASE I LANDFILL,TAVARES,FL,28.76165,-81.738,36281.0,,36281.0,,,HH,Municipal Landfills,Direct Emitter
278,1005878,110009654221,LAKE COUNTY SOLID WASTE FACILITY *,PAINESVILLE,OH,41.766395,-81.198181,88188.75,,88188.75,,,HH,Municipal Landfills,Direct Emitter
279,1004093,,LAKE HAVASU LANDFILL,LAKE HAVASU CITY,AZ,34.5463,-114.339,43307.5,,43307.5,,,HH,Municipal Landfills,Direct Emitter
280,1002134,110032643842,LAMB CANYON SANITARY LANDFILL,BEAUMONT,CA,33.88338,-116.99081,100239.25,,100239.25,,,HH,Municipal Landfills,Direct Emitter
281,1004679,110034136049,LAND RECOVERY LANDFILL INDUST,GRAHAM,WA,47.127923,-122.292929,109911.75,,109911.75,,,HH,Municipal Landfills,Direct Emitter
282,1004887,110018291882,LANDFILL 33 LTD,EFFINGHAM,IL,39.102089,-88.52566,85197.25,,85197.25,,,HH,Municipal Landfills,Direct Emitter
283,1002224,110017972942,LAS PULGAS LANDFILL,CAMP PENDLETON (MIL RES),CA,33.019699,-116.837799,23146.25,,23146.25,,,HH,Municipal Landfills,Direct Emitter
284,1002341,110071159553,LAUREL RIDGE LANDFILL,LILY,KY,37.023652,-84.082001,42578.75,,42578.75,,,HH,Municipal Landfills,Direct Emitter
285,1004993,110001650188,LAWTON LANDFILL,LAWTON,OK,34.523567,-98.401086,94988.25,,94988.25,,,HH,Municipal Landfills,Direct Emitter
286,1002557,110017746322,LEE COUNTY LANDFILL,BISHOPVILLE,SC,34.189266,-80.284977,72574.25,,72574.25,,,HH,Municipal Landfills,Direct Emitter
287,1002990,110060947409,LEE/HENDRY COUNTY REGIONAL SOLID WASTE DISPOSAL FACILITY,FELDA,FL,26.565861,-81.527306,102995.25,,102995.25,,,HH,Municipal Landfills,Direct Emitter
288,1002546,110063626697,LEE\S SUMMIT RESOURCE RECOVERY PARK,LEE\S SUMMIT,MO,38.88453,-94.359391,38154.25,,38154.25,,,HH,Municipal Landfills,Direct Emitter
289,1005365,110056353075,LEXINGTON / FAYETTE LANDFILL,LEXINGTON,KY,38.04484,-84.49536,51751.75,,51751.75,,,HH,Municipal Landfills,Direct Emitter
290,1005461,110014008536,LINCOLN COUNTY LANDFILL,CROUSE,NC,35.43049,-81.35386,48590.0,,48590.0,,,HH,Municipal Landfills,Direct Emitter
291,1006229,110006396033,LIVE OAK LANDFILL & RECYLING CENTER,CONLEY,GA,33.67103,-84.34245,8324.5,,8324.5,,,HH,Municipal Landfills,Direct Emitter
292,1006107,110013961089,LOPEZ CANYON LANDFILL,LAKE VIEW TERRACE,CA,34.28842,-118.40075,152271.0,,152271.0,,,HH,Municipal Landfills,Direct Emitter
293,1007969,110020689450,LORAIN COUNTY LANDFILL I & II,OBERLIN,OH,41.294962,-82.169967,127686.5,,127686.5,,,HH,Municipal Landfills,Direct Emitter
294,1002490,110008198388,LOUDOUN COUNTY SANITARY LANDFILL,LEESBURG,VA,39.03757,-77.58138,21341.25,,21341.25,,,HH,Municipal Landfills,Direct Emitter
295,1004310,110010303386,LYON DEVELOPMENT LF,NEW HUDSON,MI,42.513858,-83.615894,7903.75,,7903.75,,,HH,Municipal Landfills,Direct Emitter
296,1012903,110070209438,La Gloria Ranch Landfill,Edinburg,TX,26.399768,-98.326169,86213.0,,86213.0,,,HH,Municipal Landfills,Direct Emitter
297,1007814,110015742847,Lacy Lakeview RDF,Waco,TX,31.60358,-97.061841,52118.5,,52118.5,,,HH,Municipal Landfills,Direct Emitter
298,1007225,110071161315,Landfill and Development Company,Mt. Holly,NJ,39.982525,-74.771594,1291.75,,1291.75,,,HH,Municipal Landfills,Direct Emitter
299,1001668,110071160415,Lantana Landfill (Park Ridge Golf Course),Lake Worth,FL,26.591074,-80.192436,20410.25,,20410.25,,,HH,Municipal Landfills,Direct Emitter
300,1003626,110009390701,Laubscher Meadows Landfill,EVANSVILLE,IN,38.040318,-87.591242,23901.5,,23901.5,,,HH,Municipal Landfills,Direct Emitter
301,1012422,110061013166,Laurens Co - Old Macon Road MSWL,Dublin,GA,32.58451,-83.05705,33541.0,,33541.0,,,HH,Municipal Landfills,Direct Emitter
302,1011026,110070082109,Layon Municipal Solid Waste Landfill,Inarajan,GU,13.2971,144.7309,57575.25,,57575.25,,,HH,Municipal Landfills,Direct Emitter
303,1011595,110061163798,Lea County Landfill,Eunice,NM,32.42,-103.6,42774.25,,42774.25,,,HH,Municipal Landfills,Direct Emitter
304,1006851,110070716206,Leflore County Landfill,Sidon,MS,33.415689,-90.243231,78376.25,,78376.25,,,HH,Municipal Landfills,Direct Emitter
305,1004913,110043790662,Lena Road Class I Landfill,Bradenton,FL,27.469638,-82.458781,38479.25,,38479.25,,,HH,Municipal Landfills,Direct Emitter
306,1005026,110034163946,Lenoir County Landfill,LaGrange,NC,35.29357,-77.71334,22658.75,,22658.75,,,HH,Municipal Landfills,Direct Emitter
307,1006816,110001739003,Leon County Landfill,Tallahassee,FL,30.422634,-84.149884,63893.75,,63893.75,,,HH,Municipal Landfills,Direct Emitter
308,1004538,110040679940,Lewis & Clark County Landfill,Helena,MT,46.67572,-111.88037,33857.25,,33857.25,,,HH,Municipal Landfills,Direct Emitter
309,1007543,110015966472,Lone Cactus Landfill,Phoenix,AZ,33.681984,-112.06564,63654.5,,63654.5,,,HH,Municipal Landfills,Direct Emitter
310,1002799,110034181613,Los Reales Landfill,Tucson,AZ,32.1199,-110.88195,21442.75,,21442.75,,,HH,Municipal Landfills,Direct Emitter
311,1006881,110015618562,MARION COUNTY BASELINE LANDFILL SOLID WASTE TRANSFER STATION,OCALA,FL,29.120833,-82.05804,112705.75,,112705.75,,,HH,Municipal Landfills,Direct Emitter
312,1003587,110003491908,MARTONE LANDFILL & GAS GENERATING FACILITY,BARRE,MA,42.3874,-72.07949,1503.25,,1503.25,,,HH,Municipal Landfills,Direct Emitter
313,1006899,110031505823,MCCARTY ROAD LANDFILL TX,HOUSTON,TX,29.82204,-95.24071,210028.25,,210028.25,,,HH,Municipal Landfills,Direct Emitter
314,1006291,110034755842,MCKINNEY LANDFILL,MCKINNEY,TX,33.15934,-96.58633,52492.25,,52492.25,,,HH,Municipal Landfills,Direct Emitter
315,1000425,110043972485,MERCER COUNTY LANDFILL,PRINCETON,WV,37.330936,-81.128991,36270.0,,36270.0,,,HH,Municipal Landfills,Direct Emitter
316,1002469,110007019047,MEXIA LANDFILL,MEXIA,TX,31.61294,-96.503316,6004.25,,6004.25,,,HH,Municipal Landfills,Direct Emitter
317,1005718,110001297999,MIDSHORE I REGIONAL SOLID WASTE FACILITY,EASTON,MD,38.746093,-76.019939,33144.5,,33144.5,,,HH,Municipal Landfills,Direct Emitter
318,1011317,110055100714,MIDSHORE II REGIONAL SOLID WASTE FACILITY,Ridgely,MD,38.9439,-75.85352,105344.5,,105344.5,,,HH,Municipal Landfills,Direct Emitter
319,1006293,110043813530,MILLIKEN SANITARY LANDFILL,ONTARIO,CA,34.036198,-117.558433,21459.75,,21459.75,,,HH,Municipal Landfills,Direct Emitter
320,1007652,110071160921,MOHAWK VALLEY SANITARY LANDFILL,FRANKFORT,NY,43.072769,-75.130331,14469.5,,14469.5,,,HH,Municipal Landfills,Direct Emitter
321,1003505,110034154368,MONROE COUNTY LANDFILL,BLOOMINGTON,IN,39.2808,-86.4739,18693.0,,18693.0,,,HH,Municipal Landfills,Direct Emitter
322,1006957,110025364040,MONTGOMERY CITY OF,MONTGOMERY,AL,32.408915,-86.320026,132052.25,,132052.25,,,HH,Municipal Landfills,Direct Emitter
323,1007611,110006643784,MOUNTAINVIEW SANITARY LANDFILL,FROSTBURG,MD,39.607222,-78.921944,6226.25,,6226.25,,,HH,Municipal Landfills,Direct Emitter
324,1006462,110011151724,MUNDY LANDFILL,MANSFIELD,LA,32.057376,-93.590889,136862.5,,136862.5,,,HH,Municipal Landfills,Direct Emitter
325,1003335,110063658974,MURRAY COUNTY LANDFILL,CHATSWORTH,GA,34.766802,-84.769581,47369.25,,47369.25,,,HH,Municipal Landfills,Direct Emitter
326,1003616,110063277635,MUSKOGEE COMMUNITY LNDFLL,MUSKOGEE,OK,35.71785,-95.42943,132675.0,,132675.0,,,HH,Municipal Landfills,Direct Emitter
327,1010379,110011053493,Macland Disposal Center Commercial and Industrial Landfill,Moss Point,MS,30.50615,-88.53594,119640.5,,119640.5,,,HH,Municipal Landfills,Direct Emitter
328,1011793,110060767004,Macon Bibb Walker Road MSWL,MACON,GA,32.822514,-83.618969,60210.0,,60210.0,,,HH,Municipal Landfills,Direct Emitter
329,1010561,110039566207,Marion County Landfill,Jasper,TN,35.043713,-85.632659,44334.25,,44334.25,,,HH,Municipal Landfills,Direct Emitter
330,1010983,110013925707,Marshall County Sanitary Landfill,Marshalltown,IA,42.02874,-92.98242,30959.75,,30959.75,,,HH,Municipal Landfills,Direct Emitter
331,1011448,110063234806,Matanuska-Susitna Borough Central Landfill,Palmer,AK,61.589821,-149.205408,26550.0,,26550.0,,,HH,Municipal Landfills,Direct Emitter
332,1007440,110043787239,Matlock Bend Landfill,Loudon,TN,35.740686,-84.419177,157795.5,,157795.5,,,HH,Municipal Landfills,Direct Emitter
333,1003921,110071160971,Maxwell Creek Landfill,Wylie,TX,32.999,-96.5796,70679.0,,70679.0,,,HH,Municipal Landfills,Direct Emitter
334,1007154,110043815342,McCOMBS LANDFILL,El Paso,TX,31.975476,-106.417031,290713.5,,290713.5,,,HH,Municipal Landfills,Direct Emitter
335,1007857,110006846958,Medley Landfill,MEDLEY,FL,25.85784,-80.350826,110577.5,,110577.5,,,HH,Municipal Landfills,Direct Emitter
336,1004380,110043782378,Merrill Field Landfill,Anchorage,AK,61.210854,-149.846558,60496.0,,60496.0,,,HH,Municipal Landfills,Direct Emitter
337,1005898,110034187038,Modelfill Landfill,LITTLE ROCK,AR,34.71411,-92.33253,6267.5,,6267.5,,,HH,Municipal Landfills,Direct Emitter
338,1011631,110064252491,Morrilton Sanitary Landfill,Morrilton,AR,35.129664,-92.701614,45699.25,,45699.25,,,HH,Municipal Landfills,Direct Emitter
339,1004541,110014060504,Morris Community Landfill,Morris,IL,41.372551,-88.403155,39599.0,,39599.0,,,HH,Municipal Landfills,Direct Emitter
340,1007447,110043789219,Morristown Balefill Landfill,Morristown,TN,36.15494,-83.29983,56310.25,,56310.25,,,HH,Municipal Landfills,Direct Emitter
341,1004164,110010261634,"Mostoller Landfill, Inc.",Somerset,PA,39.98237,-78.98189,26548.0,,26548.0,,,HH,Municipal Landfills,Direct Emitter
342,1010288,110071159944,Mt. Eaton Landfill,Navarre,OH,40.708897,-81.537701,31492.5,,31492.5,,,HH,Municipal Landfills,Direct Emitter
343,1010979,,NCIRSWA Sanitary Landfill,Fort Dodge,IA,42.486185,-94.167733,51064.75,,51064.75,,,HH,Municipal Landfills,Direct Emitter
344,1005282,110039636196,"NE MS SW MGT AUTHORITY, NE MS REG LF",WALNUT,MS,34.923149,-88.845504,58005.0,,58005.0,,,HH,Municipal Landfills,Direct Emitter
345,1004052,110006529514,NEAL ROAD RECYCLING AND WASTE FACILITY,PARADISE,CA,39.6757,-121.7299,20464.25,,20464.25,,,HH,Municipal Landfills,Direct Emitter
346,1006028,110060781550,"NEW GEORGIA LANDFILL, BIRMINGHAM",BIRMINGHAM,AL,33.56841,-86.77234,127081.0,,127081.0,,,HH,Municipal Landfills,Direct Emitter
347,1006119,110018631248,NEW HANOVER COUNTY SECURE LANDFILL,WILMINGTON,NC,34.32188,-77.99312,46883.0,,46883.0,,,HH,Municipal Landfills,Direct Emitter
348,1007662,110020678453,NEW RIVER RESOURCE AUTHORITY REGIONAL SOLID WASTE MANAGEMENT FACILITY,DUBLIN,VA,37.19319,-80.66975,52113.0,,52113.0,,,HH,Municipal Landfills,Direct Emitter
349,1005630,110060935163,NEW RIVER SOLID WASTE ASSOCIATION,RAIFORD,FL,30.09709,-82.26037,93550.25,,93550.25,,,HH,Municipal Landfills,Direct Emitter
350,1006179,110006533117,NEWBY ISLAND LANDFILL,MILPITAS,CA,37.45973,-121.94164,127559.25,,127559.25,,,HH,Municipal Landfills,Direct Emitter
351,1004028,110005971154,NEWCASTLE LANDFILL,NEWCASTLE,OK,35.2646,-97.5864,16085.25,,16085.25,,,HH,Municipal Landfills,Direct Emitter
352,1007029,110001837326,NEWLAND PARK LANDFILL,SALISBURY,MD,38.388864,-75.640253,46304.5,,46304.5,,,HH,Municipal Landfills,Direct Emitter
353,1006279,110013937071,NEWTON COUNTY LANDFILL,COVINGTON,GA,33.550116,-83.89559,64772.25,,64772.25,,,HH,Municipal Landfills,Direct Emitter
354,1009137,110001525314,NJMC 1-E Landfill,North Arlington,NJ,40.775058,-74.123042,30058.25,,30058.25,,,HH,Municipal Landfills,Direct Emitter
355,1004850,110006278866,NOBLE ROAD LANDFILL (0370000134),SHILOH,OH,40.971102,-82.48517,369193.25,,369193.25,,,HH,Municipal Landfills,Direct Emitter
356,1006292,110043787523,NORTH DADE LANDFILL MIAMI-DADE SOLID WASTE MANAGEMENT,MIAMI,FL,25.96761,-80.286748,96603.75,,96603.75,,,HH,Municipal Landfills,Direct Emitter
357,1007558,110009550066,NORTH MIRAMAR SANITARY LANDFILL,SAN DIEGO,CA,32.83582,-117.15236,3209.75,,3209.75,,,HH,Municipal Landfills,Direct Emitter
358,1005319,110014015680,NORTHEAST ARKANSAS REGIONAL SOLID WASTE MANAGEMENT DISTRICT,PARAGOULD,AR,36.069716,-90.453316,91863.25,,91863.25,,,HH,Municipal Landfills,Direct Emitter
359,1002558,110043787532,NORTHEAST SANITARY LANDFILL,EASTOVER,SC,34.011393,-80.691803,21696.25,,21696.25,,,HH,Municipal Landfills,Direct Emitter
360,1006459,110043783894,Nelson County Solid Waste Disposal Facility,Bardstown,KY,37.823062,-85.540612,76855.75,,76855.75,,,HH,Municipal Landfills,Direct Emitter
361,1011256,110070082123,Nelson Gardens Landfill,San Antonio,TX,29.32697,-98.667861,112237.25,,112237.25,,,HH,Municipal Landfills,Direct Emitter
362,1007591,110071159468,Newton County Landfill,Deweyville,TX,30.342953,-93.84162,114770.25,,114770.25,,,HH,Municipal Landfills,Direct Emitter
363,1013635,110070619182,North Valley Landfill,Clarkston,UT,41.93394,-112.0457,8262.5,,8262.5,,,HH,Municipal Landfills,Direct Emitter
364,1002477,110030469758,OAK GROVE SANITARY LANDFILL,WINDER,GA,33.96532,-83.7731,47558.75,,47558.75,,,HH,Municipal Landfills,Direct Emitter
365,1007582,110008546047,OAKRIDGE LANDFILL INCORPORATED,DORCHESTER,SC,33.131812,-80.362967,65743.0,,65743.0,,,HH,Municipal Landfills,Direct Emitter
366,1006252,110001907866,OLD DOMINION LANDFILL,RICHMOND,VA,37.58991,-77.52987,70170.75,,70170.75,,,HH,Municipal Landfills,Direct Emitter
367,1002320,110013978384,OLINDA ALPHA LANDFILL,BREA,CA,33.9378,-117.8375,421146.5,,421146.5,,,HH,Municipal Landfills,Direct Emitter
368,1006033,110003873657,OLMSTED COUNTY - KALMAR LANDFILL,ROCHESTER,MN,44.043444,-92.583806,11132.75,,11132.75,,,HH,Municipal Landfills,Direct Emitter
369,1003586,110005325503,OLYMPIC VIEW SANITARY LANDFILL INC,PORT ORCHARD,WA,47.50473,-122.78081,1763.0,,1763.0,,,HH,Municipal Landfills,Direct Emitter
370,1001953,110009853417,ONSLOW COUNTY LANDFILL,JACKSONVILLE,NC,34.79804,-77.53781,78971.25,,78971.25,,,HH,Municipal Landfills,Direct Emitter
371,1007397,110013956326,ORANGE COUNTY LANDFILL,ORANGE,VA,38.2411,-78.0341,30060.75,,30060.75,,,HH,Municipal Landfills,Direct Emitter
372,1008215,110041184697,ORANGE COUNTY LANDFILL,ORLANDO,FL,28.48079,-81.21875,167443.25,,167443.25,,,HH,Municipal Landfills,Direct Emitter
373,1000349,110001749341,OSCEOLA LANDFILL,GENEVA,FL,28.787739,-81.081861,297591.5,,297591.5,,,HH,Municipal Landfills,Direct Emitter
374,1008030,110000832243,OTAY LANDFILL,CHULA VISTA,CA,32.6055,-117.00504,129078.5,,129078.5,,,HH,Municipal Landfills,Direct Emitter
375,1006219,110063666803,Oklahoma Environmental Management Authority Landfill,UNION CITY,OK,35.394692,-97.940789,87579.5,,87579.5,,,HH,Municipal Landfills,Direct Emitter
376,1005524,110043815529,Orange County Regional Landfill,Chapel Hill,NC,35.9711,-79.0819,23919.5,,23919.5,,,HH,Municipal Landfills,Direct Emitter
377,1007112,110005972965,Ox Mountain Sanitary Landfill,HALF MOON BAY,CA,37.4992,-122.411,229893.0,,229893.0,,,HH,Municipal Landfills,Direct Emitter
378,1014715,,Oxford MSW Landfill,Oxford,NC,36.370332205509,-78.623376758911,18977.0,,18977.0,,,HH,Municipal Landfills,Direct Emitter
379,1005092,110060867888,Oxnard Landfills,Oxnard,CA,34.21946,-119.224877,5500.0,,5500.0,,,HH,Municipal Landfills,Direct Emitter
380,1007681,110010068023,Ozark Ridge Landfill,Danville,AR,35.089806,-93.209194,13179.75,,13179.75,,,HH,Municipal Landfills,Direct Emitter
381,1003611,110012625169,PAINTED DESERT LANDFILL,JOSEPH CITY,AZ,34.997433,-110.33908,4297.25,,4297.25,,,HH,Municipal Landfills,Direct Emitter
382,1005865,110007032521,PALO ALTO LANDFILL AND RECYCLING CENTER,PALO ALTO,CA,37.44787,-122.10351,987.0,,987.0,,,HH,Municipal Landfills,Direct Emitter
383,1003361,110028035070,PALOS VERDES LANDFILL,ROLLING HILLS ESTATES,CA,33.791669,-118.352439,18029.75,,18029.75,,,HH,Municipal Landfills,Direct Emitter
384,1005656,110060913301,PERDIDO LANDFILL CONSTRUCTION - PHASE 5,CANTONMENT,FL,30.5772,-87.39303,196311.5,,196311.5,,,HH,Municipal Landfills,Direct Emitter
385,1006306,110002353818,PERRY RIDGE LANDFILL INC,DU QUOIN,IL,38.016727,-89.307492,84173.5,,84173.5,,,HH,Municipal Landfills,Direct Emitter
386,1003322,110013962122,PETERSBURG CITY LANDFILL,PETERSBURG,VA,37.242262,-77.373603,109948.25,,109948.25,,,HH,Municipal Landfills,Direct Emitter
387,1002478,110063281522,PINE RIDGE LANDFIL,GRIFFIN,GA,33.236143,-84.124978,118017.0,,118017.0,,,HH,Municipal Landfills,Direct Emitter
388,1000218,110013931763,PINE RIDGE RECYCLING & DISPOSAL,WINTER GARDEN,FL,28.487325,-81.651813,57292.75,,57292.75,,,HH,Municipal Landfills,Direct Emitter
389,1005165,110011073391,PINE RIDGE SANITARY LANDFILL,MERIDIAN,MS,32.375361,-88.610222,13759.25,,13759.25,,,HH,Municipal Landfills,Direct Emitter
390,1002513,110030747716,PLEASANT OAKS LANDFILL,MT PLEASANT,TX,33.1167,-95.0143,47795.25,,47795.25,,,HH,Municipal Landfills,Direct Emitter
391,1000215,110030747645,POLK COUNTY LANDFILL,LEGGETT,TX,30.83268,-94.92369,31867.5,,31867.5,,,HH,Municipal Landfills,Direct Emitter
392,1004149,110007164273,PORTER LANDFILL,PORTER,OK,35.87682,-95.55506,28031.75,,28031.75,,,HH,Municipal Landfills,Direct Emitter
393,1007345,110017973193,POTRERO HILLS LANDFILL,SUISUN CITY,CA,38.225239,-121.976742,71018.25,,71018.25,,,HH,Municipal Landfills,Direct Emitter
394,1003571,110009610787,PREBLE COUNTY SANITARY LANDFILL *,EATON,OH,39.688082,-84.641051,38252.5,,38252.5,,,HH,Municipal Landfills,Direct Emitter
395,1002106,110012694352,PRIMA DESHECHA LANDFILL,SAN JUAN CAPISTRANO,CA,33.4865,-117.6251,85637.75,,85637.75,,,HH,Municipal Landfills,Direct Emitter
396,1006049,110013932414,PUTNAM COUNTY CENTRAL LANDFILL,PALATKA,FL,29.718035,-81.665607,100129.5,,100129.5,,,HH,Municipal Landfills,Direct Emitter
397,1000783,110005792482,Pickles Butte Sanitary Landfill,Nampa,ID,43.4929,-116.7045,128112.5,,128112.5,,,HH,Municipal Landfills,Direct Emitter
398,1004347,110063275888,Pike Co. Landfill,Varney,KY,37.573429,-82.449911,51023.0,,51023.0,,,HH,Municipal Landfills,Direct Emitter
399,1010773,110063278000,Pine Belt Regional Solid Waste Management Authority,Ovett,MS,31.408633,-89.086783,101451.25,,101451.25,,,HH,Municipal Landfills,Direct Emitter
400,1006227,110060812964,Pinehill Landfill,Kilgore,TX,32.4379,-94.82405,45104.25,,45104.25,,,HH,Municipal Landfills,Direct Emitter
401,1002646,110013986525,Pineview Landfill,Dora,AL,33.73069,-87.046673,58955.5,,58955.5,,,HH,Municipal Landfills,Direct Emitter
402,1011037,110010304571,Pioneer Crossing Landfill,Birdsboro,PA,40.27376,-75.81391,52824.75,,52824.75,,,HH,Municipal Landfills,Direct Emitter
403,1010987,110057068220,Pitt County Landfill,Greenville,NC,35.598004,-77.427323,30629.5,,30629.5,,,HH,Municipal Landfills,Direct Emitter
404,1002729,110034170545,Ponca City Landfill,Ponca City,OK,36.637624,-97.116596,39391.75,,39391.75,,,HH,Municipal Landfills,Direct Emitter
405,1004774,110071160458,Ponce Landfill,PONCE,PR,18.100065,-66.62008,62731.5,,62731.5,,,HH,Municipal Landfills,Direct Emitter
406,1013030,110006725008,Prairie Valley Landfill,Cuba,MO,38.121974,-91.417638,50325.0,,50325.0,,,HH,Municipal Landfills,Direct Emitter
407,1004059,110060543648,QUAD CITIES LANDFILL PHASE IV,MILAN,IL,41.38311,-90.51353,78323.25,,78323.25,,,HH,Municipal Landfills,Direct Emitter
408,1007859,110071160003,QUAIL HOLLOW LANDFILL,TULLAHOMA,TN,35.389485,-86.310046,24381.5,,24381.5,,,HH,Municipal Landfills,Direct Emitter
409,1001568,110013980406,QUARANTINE ROAD LANDFILL,CURTIS BAY,MD,39.20588,-76.55933,20113.25,,20113.25,,,HH,Municipal Landfills,Direct Emitter
410,1003467,110039469599,QUEEN CREEK MSW LANDFILL,QUEEN CREEK,AZ,33.208557,-111.65172,54820.25,,54820.25,,,HH,Municipal Landfills,Direct Emitter
411,1006285,110070431605,Quad Cities Landfill Phase 1&2/3,MILAN,IL,41.38311,-90.51353,1390.0,,1390.0,,,HH,Municipal Landfills,Direct Emitter
412,1013940,110070079476,Quad County Municipal Landfill,Byhalia,MS,34.993111,-89.650139,10712.75,,10712.75,,,HH,Municipal Landfills,Direct Emitter
413,1004676,110013963078,RAPID CITY LANDFILL,RAPID CITY,SD,44.02983,-103.19188,47291.5,,47291.5,,,HH,Municipal Landfills,Direct Emitter
414,1004745,110017973022,RECOLOGY OSTROM ROAD,WHEATLAND,CA,39.07556,-121.39926,78540.75,,78540.75,,,HH,Municipal Landfills,Direct Emitter
415,1005873,110054261589,REICHS FORD MUNICIPAL LANDFILL & RECYCLING CENTER,FREDERICK,MD,39.372677,-77.343385,53958.75,,53958.75,,,HH,Municipal Landfills,Direct Emitter
416,1007706,110001673289,RICHLAND COUNTY LANDFILL,ELGIN,SC,34.105278,-80.779444,52360.25,,52360.25,,,HH,Municipal Landfills,Direct Emitter
417,1004487,110013947435,RICHLAND CREEK ROAD LANDFILL,BUFORD,GA,34.13468,-84.03748,126330.0,,126330.0,,,HH,Municipal Landfills,Direct Emitter
418,1005900,110031220042,RIO GRANDE VALLEY LANDFILL,DONNA,TX,26.227,-98.029,11578.25,,11578.25,,,HH,Municipal Landfills,Direct Emitter
419,1007769,110061382944,RIO RANCHO MUNICPAL LANDFILL,RIO RANCHO,NM,35.276515,-106.67104,20227.5,,20227.5,,,HH,Municipal Landfills,Direct Emitter
420,1004501,110006718560,ROCKINGHAM COUNTY LANDFILL,MADISON,NC,36.3647,-79.8422,35723.5,,35723.5,,,HH,Municipal Landfills,Direct Emitter
421,1004544,110007229052,"ROLLING MEADOWS LANDFILL, INC.",HAZEN,AR,34.8491,-91.5889,150225.75,,150225.75,,,HH,Municipal Landfills,Direct Emitter
422,1005384,110043790172,ROSEBURG LANDFILL,ROSEBURG,OR,43.1872,-123.3819,60965.5,,60965.5,,,HH,Municipal Landfills,Direct Emitter
423,1006996,110060514572,ROWAN COUNTY LANDFILL,WOODLEAF,NC,35.757219,-80.560395,34852.25,,34852.25,,,HH,Municipal Landfills,Direct Emitter
424,1002512,110030493366,ROYAL OAKS LANDFILL,JACKSONVILLE,TX,32.0022,-95.268,103721.75,,103721.75,,,HH,Municipal Landfills,Direct Emitter
425,1007785,110041493354,Raleigh County Solid Waste Authority Landfill,Beckley,WV,37.81837,-81.1687,139148.25,,139148.25,,,HH,Municipal Landfills,Direct Emitter
426,1005042,110070111135,Recology Hay Road,VACAVILLE,CA,38.3121,-121.8362,60192.5,,60192.5,,,HH,Municipal Landfills,Direct Emitter
427,1002730,110031252962,Rhea County Landfill,Dayton,TN,35.56154,-84.91011,233419.75,,233419.75,,,HH,Municipal Landfills,Direct Emitter
428,1002746,110043810203,Rock Prairie Road Landfill,College Station,TX,30.58039,-96.24581,100951.0,,100951.0,,,HH,Municipal Landfills,Direct Emitter
429,1010671,110009671541,Royalton Road Sanitary Landfill,Broadview Heights,OH,41.3139,-81.662604,19160.0,,19160.0,,,HH,Municipal Landfills,Direct Emitter
430,1002223,110011150333,SABINE PARISH LANDFILL,MANY,LA,31.609914,-93.557411,136185.75,,136185.75,,,HH,Municipal Landfills,Direct Emitter
431,1006513,110063666938,SALINE COUNTY REGIONAL WASTE MGMT DISTRICT LANDFILL,BAUXITE,AR,34.531692,-92.407868,49197.0,,49197.0,,,HH,Municipal Landfills,Direct Emitter
432,1004118,110044801159,"SAMPSON COUNTY DISPOSAL, LLC",ROSEBORO,NC,34.962065,-78.448345,180050.0,,180050.0,,,HH,Municipal Landfills,Direct Emitter
433,1003044,110030747725,SAN ANGELO LANDFILL,SAN ANGELO,TX,31.505472,-100.39063,17225.5,,17225.5,,,HH,Municipal Landfills,Direct Emitter
434,1006215,110070089964,SAN MARCOS LANDFILL,SAN MARCOS,CA,33.10357,-117.17838,4056.5,,4056.5,,,HH,Municipal Landfills,Direct Emitter
435,1004692,110013974921,SAN TIMOTEO SOLID WASTE DISPOSAL SITE(REDLANDS),REDLANDS,CA,34.0124,-117.2154,28509.5,,28509.5,,,HH,Municipal Landfills,Direct Emitter
436,1000010,110013945437,SANTA ROSA CENTRAL LANDFILL,MILTON,FL,30.5804,-87.0621,187485.0,,187485.0,,,HH,Municipal Landfills,Direct Emitter
437,1005782,110012694851,SAVAGE CANYON LANDFILL,WHITTIER,CA,33.981737,-118.015269,12978.75,,12978.75,,,HH,Municipal Landfills,Direct Emitter
438,1005314,110001360312,SAVANNAH-DEAN FOREST ROAD LANDFILL,SAVANNAH,GA,32.055048,-81.211428,141859.5,,141859.5,,,HH,Municipal Landfills,Direct Emitter
439,1007082,110055598072,SHELBY COUNTY HIGHWAY 70 LANDFILL,COLUMBIANA,AL,33.17183,-86.68749,127331.0,,127331.0,,,HH,Municipal Landfills,Direct Emitter
440,1007088,110001886745,SHOOSMITH SANITARY LANDFILL,CHESTER,VA,37.35109,-77.49563,41860.0,,41860.0,,,HH,Municipal Landfills,Direct Emitter
441,1007001,110043783180,SHORT MOUNTAIN LANDFILL,EUGENE,OR,43.959893,-122.998005,21634.25,,21634.25,,,HH,Municipal Landfills,Direct Emitter
442,1002656,110063627151,SIOUX FALLS REGIONAL SANITARY LANDFILL (SFRSL),Hartford,SD,43.511464,-96.930176,60842.25,,60842.25,,,HH,Municipal Landfills,Direct Emitter
443,1003666,110007326848,SMITH GAP REGIONAL LANDFILL,SALEM,VA,37.2891,-80.2134,97920.75,,97920.75,,,HH,Municipal Landfills,Direct Emitter
444,1005839,110042946765,SOLID WASTE DISPOSAL AUTHORITY,HUNTSVILLE,AL,34.68894,-86.59206,226823.25,,226823.25,,,HH,Municipal Landfills,Direct Emitter
445,1004682,110043789601,SOUTH DADE SOLID WASTE DISPOSAL FACILITY,GOULDS,FL,25.547222,-80.34769,60530.25,,60530.25,,,HH,Municipal Landfills,Direct Emitter
446,1004408,110043177200,SOUTH WAKE LANDFILL,APEX,NC,35.674942,-78.85138,149109.0,,149109.0,,,HH,Municipal Landfills,Direct Emitter
447,1002648,110037183268,SOUTHWEST LANDFILL,CANYON,TX,35.01422,-101.95454,62937.5,,62937.5,,,HH,Municipal Landfills,Direct Emitter
448,1004240,110012150313,SOUTHWEST REGIONAL LANDFILL,BUCKEYE,AZ,33.2222,-112.6371,12685.0,,12685.0,,,HH,Municipal Landfills,Direct Emitter
449,1003395,110000781716,SPADRA LANDFILL,WALNUT,CA,34.038555,-117.8237,7275.0,,7275.0,,,HH,Municipal Landfills,Direct Emitter
450,1014304,110034172133,SPSA Regional Landfill,Suffolk,VA,36.7564,-76.50915,23038.25,,23038.25,,,HH,Municipal Landfills,Direct Emitter
451,1004121,110031036313,SR 85 LANDFILL,BUCKEYE,AZ,33.1898,-112.67612,174229.0,,174229.0,,,HH,Municipal Landfills,Direct Emitter
452,1010994,110071160196,SRPSA Butcher Creek Landfill,Chase City,VA,36.731009,-78.428012,44115.25,,44115.25,,,HH,Municipal Landfills,Direct Emitter
453,1002446,110071161745,ST JOHN LANDFILL,PORTLAND,OR,45.600836,-122.760606,1146.0,,1146.0,,,HH,Municipal Landfills,Direct Emitter
454,1006238,110027225321,ST LANDRY PARISH LANDFILL,WASHINGTON,LA,30.6833,-92.060059,77145.25,,77145.25,,,HH,Municipal Landfills,Direct Emitter
455,1003804,110009635519,STATEWIDE LANDFILL,CANTON,OH,40.74315,-81.39866,1021.0,,1021.0,,,HH,Municipal Landfills,Direct Emitter
456,1006183,110031020838,STONE'S THROW LANDFILL,TALLASSEE,AL,32.514014,-85.828028,54673.25,,54673.25,,,HH,Municipal Landfills,Direct Emitter
457,1006277,110027835582,SUNRISE LANDFILL,LAS VEGAS,NV,36.141347,-115.00308,7220.75,,7220.75,,,HH,Municipal Landfills,Direct Emitter
458,1006747,110002371870,SUNSET FARMS LANDFILL,AUSTIN,TX,30.33407,-97.62178,12104.75,,12104.75,,,HH,Municipal Landfills,Direct Emitter
459,1003679,110033204887,SUNSHINE CANYON LANDFILL,SYLMAR,CA,34.32423,-118.50343,432901.25,,432901.25,,,HH,Municipal Landfills,Direct Emitter
460,1005535,110043785776,SURRY COUNTY LANDFILL,MOUNT AIRY,NC,36.4381,-80.5702,41722.0,,41722.0,,,HH,Municipal Landfills,Direct Emitter
461,1003680,110070092140,SYCAMORE LANDFILL,SANTEE,CA,32.862911,-117.027864,155747.75,,155747.75,,,HH,Municipal Landfills,Direct Emitter
462,1002086,110063648735,SYCAMORE LANDFILL,HURRICANE,WV,38.432084,-82.022598,17061.75,,17061.75,,,HH,Municipal Landfills,Direct Emitter
463,1006228,110071160459,Salinas Landfill,SALINAS,PR,17.977466,-66.297946,114445.5,,114445.5,,,HH,Municipal Landfills,Direct Emitter
464,1002831,110071161734,Salt River Landfill,Scottsdale,AZ,33.504378,-111.787864,53519.75,,53519.75,,,HH,Municipal Landfills,Direct Emitter
465,1004255,110044801159,Sampson County Landfill,Roseboro,NC,34.962065,-78.448345,10441.25,,10441.25,,,HH,Municipal Landfills,Direct Emitter
466,1012133,110071162359,Sand Point Landfill,Carlsbad,NM,32.500534,-104.069167,43293.25,,43293.25,,,HH,Municipal Landfills,Direct Emitter
467,1000478,110043970174,Sandoval County Landfill,Rio Rancho,NM,35.3071,-106.6228,85041.25,,85041.25,,,HH,Municipal Landfills,Direct Emitter
468,1002318,110071159535,Santiago Canyon Landfill,ORANGE,CA,33.78328,-117.74998,34394.75,,34394.75,,,HH,Municipal Landfills,Direct Emitter
469,1003198,110043804942,Scholl Canyon Landfill,Los Angeles,CA,34.145023,-118.183491,88258.5,,88258.5,,,HH,Municipal Landfills,Direct Emitter
470,1004860,110043806272,Scottsboro Solid Waste,Scottsboro,AL,34.696305,-85.986151,36295.5,,36295.5,,,HH,Municipal Landfills,Direct Emitter
471,1007895,110021146188,Security Recycling and Disposal Facility,Cleveland,TX,30.3209,-95.2737,72046.5,,72046.5,,,HH,Municipal Landfills,Direct Emitter
472,1007614,110071160267,Shannon Road Landfill,Pine Bluff,AR,34.20441,-92.099,19383.75,,19383.75,,,HH,Municipal Landfills,Direct Emitter
473,1013147,,Sierra Army Depot,Herlong,CA,40.146017,-120.124045,173.5,,173.5,,,HH,Municipal Landfills,Direct Emitter
474,1008253,110054620665,Simco Road Regional Landfill,Mayfield,ID,43.256283,-115.902837,65363.5,,65363.5,,,HH,Municipal Landfills,Direct Emitter
475,1006746,110071160221,Sinton Landfill,Sinton,TX,28.015282,-97.560379,14174.25,,14174.25,,,HH,Municipal Landfills,Direct Emitter
476,1010982,110071162053,South Central Iowa Landfill,Winterset,IA,41.34485,-94.02116,28871.25,,28871.25,,,HH,Municipal Landfills,Direct Emitter
477,1012851,,South Hilo Sanitary Landfill,Hilo,HI,19.7031566,-155.2382164,78677.75,,78677.75,,,HH,Municipal Landfills,Direct Emitter
478,1006485,110037248984,South Yuma County Landfill,Yuma,AZ,32.54399,-114.61865,130650.5,,130650.5,,,HH,Municipal Landfills,Direct Emitter
479,1007666,110013982342,Southern Sanitation Landfill,Russellville,KY,36.892079,-86.911431,21821.75,,21821.75,,,HH,Municipal Landfills,Direct Emitter
480,1005730,110027232830,Stillwater Sanitary Landfill,STILLWATER,OK,36.20303,-97.03664,36998.0,,36998.0,,,HH,Municipal Landfills,Direct Emitter
481,1007888,110013701084,Swift Creek Environmental Landfill,Macon,GA,32.82169,-83.51452,7914.5,,7914.5,,,HH,Municipal Landfills,Direct Emitter
482,1002634,110034184488,TAJIGUAS LANDFILL,GAVIOTA,CA,34.4795,-120.1278,52651.75,,52651.75,,,HH,Municipal Landfills,Direct Emitter
483,1004673,110042366347,TANGIPAHOA PARISH REGIONAL SOLID WASTE FACILITY,INDEPENDENCE,LA,30.686323,-90.565348,31419.75,,31419.75,,,HH,Municipal Landfills,Direct Emitter
484,1003532,110024333960,TAUNTON SANITARY LANDFILL,TAUNTON,MA,41.92299,-71.086477,2861.75,,2861.75,,,HH,Municipal Landfills,Direct Emitter
485,1004403,110014327843,TEAPOT DOME LANDFILL,PORTERVILLE,CA,36.0195,-119.1032,5691.25,,5691.25,,,HH,Municipal Landfills,Direct Emitter
486,1005368,110065359098,TEHAMA COUNTY/RED BLUFF LANDFILL,RED BLUFF,CA,40.201194,-122.291836,33504.75,,33504.75,,,HH,Municipal Landfills,Direct Emitter
487,1003639,110007019001,TEMPLE RECYCLING AND DISPOSAL FACILITY,TEMPLE,TX,31.07982,-97.3089,116815.5,,116815.5,,,HH,Municipal Landfills,Direct Emitter
488,1002140,110071159507,TENSAS PARISH LANDFILL,ST JOSEPH,LA,31.988313,-91.267801,33411.75,,33411.75,,,HH,Municipal Landfills,Direct Emitter
489,1005347,110070367549,TEXAS DISPOSAL SYSTEMS LANDFILL,BUDA,TX,30.102064,-97.759655,93601.75,,93601.75,,,HH,Municipal Landfills,Direct Emitter
490,1003001,110031215888,TEXOMA AREA SOLID WASTE AUTHORITY LANDFI,WHITESBORO,TX,33.6322,-96.8419,133014.25,,133014.25,,,HH,Municipal Landfills,Direct Emitter
491,1006351,110071161207,THREE RIVERS REGIONAL MSW LANDFILL,JACKSON,SC,33.279795,-81.800572,129852.0,,129852.0,,,HH,Municipal Landfills,Direct Emitter
492,1002547,110016777111,"THREE RIVERS SOLID WASTE MANAGEMENT AUTHORITY, THREE RIVERS REGIONAL LANDFILL",PONTOTOC,MS,34.2855,-89.059028,186411.0,,186411.0,,,HH,Municipal Landfills,Direct Emitter
493,1007274,110002436114,TIMBERLANDS LANDFILL,BREWTON,AL,31.2566,-87.1861,35655.5,,35655.5,,,HH,Municipal Landfills,Direct Emitter
494,1004743,110012693932,TOLAND ROAD LANDFILL,SANTA PAULA,CA,34.405411,-118.996373,49107.0,,49107.0,,,HH,Municipal Landfills,Direct Emitter
495,1006044,110013919359,TOWER LANDFILL INC,COMMERCE CITY,CO,39.853407,-104.768066,36286.5,,36286.5,,,HH,Municipal Landfills,Direct Emitter
496,1006089,110013959895,TOYON CANYON PARK RECLAMATION PROJECT,LOS ANGELES,CA,34.1441,-118.3012,78006.5,,78006.5,,,HH,Municipal Landfills,Direct Emitter
497,1006532,110071161830,TOYTOWN SLF,ST PETERSBURG,FL,27.87501,-82.65399,37003.75,,37003.75,,,HH,Municipal Landfills,Direct Emitter
498,1007836,110002688093,TRI-CITIES RECYCLING,FREMONT,CA,37.49548,-121.98914,5145.25,,5145.25,,,HH,Municipal Landfills,Direct Emitter
499,1004876,110060988828,Tangerine Landfill,Marana,AZ,32.42252,-111.1661,61705.0,,61705.0,,,HH,Municipal Landfills,Direct Emitter
500,1005371,110014061558,Tazewell County Landfill,North Tazewell,VA,37.1852,-81.4438,63512.5,,63512.5,,,HH,Municipal Landfills,Direct Emitter
501,1002471,110071159801,Tessman Road Landfill,San Antonio,TX,29.447784,-98.351184,197214.5,,197214.5,,,HH,Municipal Landfills,Direct Emitter
502,1007796,110007348450,Three Corners Landfill,Piedmont,AL,33.995349,-85.729655,55749.75,,55749.75,,,HH,Municipal Landfills,Direct Emitter
503,1004646,110030493428,Trinity Oaks Landfill,Dallas,TX,32.688672,-96.633183,2862.75,,2862.75,,,HH,Municipal Landfills,Direct Emitter
504,1004474,110043797344,Troy Area Landfill,East Troy,WI,42.7662,-88.4161,37364.75,,37364.75,,,HH,Municipal Landfills,Direct Emitter
505,1010392,110070389994,Turkey Run Landfill,Hogansville,GA,33.163696,-84.848925,135231.75,,135231.75,,,HH,Municipal Landfills,Direct Emitter
506,1011271,110043274792,"Turkey Trot Landfill, LLC",Citronelle,AL,31.14703,-88.17364,114834.5,,114834.5,,,HH,Municipal Landfills,Direct Emitter
507,1011032,110071162390,Twin Oaks Landfill,Anderson,TX,30.601676,-96.15334,110149.5,,110149.5,,,HH,Municipal Landfills,Direct Emitter
508,1004479,110001698459,UNION COUNTY RECYCLING AND DISPOSAL,EL DORADO,AR,33.324417,-92.688694,78972.0,,78972.0,,,HH,Municipal Landfills,Direct Emitter
509,1004485,110041033164,UNION COUNTY REGIONAL MSW LANDFILL,ENOREE,SC,34.6128,-81.8209,121726.25,,121726.25,,,HH,Municipal Landfills,Direct Emitter
510,1007984,110037601217,UPPER PIEDMONT REGIONAL LANDFILL,ROUGEMONT,NC,36.33719,-78.8299,43471.75,,43471.75,,,HH,Municipal Landfills,Direct Emitter
511,1004831,110009853532,UWHARRIE ENVIRONMENTAL,MOUNT GILEAD,NC,35.3338,-79.96474,70112.75,,70112.75,,,HH,Municipal Landfills,Direct Emitter
512,1004298,110071161320,Union Parish Sanitary Landfill,Farmerville,LA,32.81393,-92.40517,114754.25,,114754.25,,,HH,Municipal Landfills,Direct Emitter
513,1005440,110010068050,Upper Southwest Regional Soild Waste Management District,Nashville,AR,34.074833,-93.840306,79432.75,,79432.75,,,HH,Municipal Landfills,Direct Emitter
514,1007040,110009544671,VASCO ROAD LANDFILL,LIVERMORE,CA,37.7531,-121.7229,27338.25,,27338.25,,,HH,Municipal Landfills,Direct Emitter
515,1007607,110017973004,Victorville Sanitary Landfill,Victorville,CA,34.5933,-117.269,34015.0,,34015.0,,,HH,Municipal Landfills,Direct Emitter
516,1004548,110071159253,Visalia Landfill,Visalia,CA,36.38797,-119.39476,16532.5,,16532.5,,,HH,Municipal Landfills,Direct Emitter
517,1007124,110071161600,W I TAYLOR COUNTY LANDFILL LLC,MAUK,GA,32.53408,-84.44317,409289.75,,409289.75,,,HH,Municipal Landfills,Direct Emitter
518,1006025,110071160177,WALKER MOUNTAIN LANDFILL-ROME-FLOYD SW COMMISSION,ROME,GA,34.256658,-85.127191,95327.5,,95327.5,,,HH,Municipal Landfills,Direct Emitter
519,1007282,110032610226,WASATCH INTEGRATED WASTE MANAGEMENT DISTRICT,LAYTON,UT,41.11113,-111.92201,48018.75,,48018.75,,,HH,Municipal Landfills,Direct Emitter
520,1004515,110014271019,WASCO COUNTY LANDFILL,THE DALLES,OR,45.55786,-121.1356,18639.5,,18639.5,,,HH,Municipal Landfills,Direct Emitter
521,1005064,110060828617,WASHINGTON COUNTY SOLID WASTE,WASHINGTON,UT,37.13585,-113.458743,7004.5,,7004.5,,,HH,Municipal Landfills,Direct Emitter
522,1007818,110001917427,WASTE MANAGEMENT GREATER WENATCHEE LANDF,EAST WENATCHEE,WA,47.403681,-120.1657,50095.75,,50095.75,,,HH,Municipal Landfills,Direct Emitter
523,1003299,110071162293,WASTE MANAGEMENT OF LA LLC/RELIABLE LANDFILL,LIVONIA,LA,30.576513,-91.530547,41474.75,,41474.75,,,HH,Municipal Landfills,Direct Emitter
524,1007854,110030747583,WASTE MANAGEMENT PECAN PRAIRIE,CELESTE,TX,33.175676,-96.130437,17295.25,,17295.25,,,HH,Municipal Landfills,Direct Emitter
525,1007907,110001743695,WASTE MGMT OF CO INC County Line,LITTLETON,CO,39.5636,-104.9335,3976.5,,3976.5,,,HH,Municipal Landfills,Direct Emitter
526,1002902,110013963540,WATERTOWN LANDFILL,WATERTOWN,SD,44.977753,-97.188354,38609.25,,38609.25,,,HH,Municipal Landfills,Direct Emitter
527,1007061,110071160825,WAYNE COUNTY LANDFILL,FAIRFIELD,IL,38.362564,-88.36679,36656.75,,36656.75,,,HH,Municipal Landfills,Direct Emitter
528,1013807,,WCA Pauls Valley Landfill,Spencer,OK,35.498500323222,-97.3967293196506,35435.25,,35435.25,,,HH,Municipal Landfills,Direct Emitter
529,1006135,110013980558,WEBSTER PARISH LANDFILL,MINDEN,LA,32.63273,-93.39045,31839.5,,31839.5,,,HH,Municipal Landfills,Direct Emitter
530,1001819,110065210266,WEST CENTRAL LANDFILL,REDDING,CA,40.501219,-122.448313,63361.0,,63361.0,,,HH,Municipal Landfills,Direct Emitter
531,1006173,110034132542,WEST HAWAII LANDFILL / PUU ANAHULU,WAIKOLOA,HI,19.904893,-155.883239,8249.5,,8249.5,,,HH,Municipal Landfills,Direct Emitter
532,1005061,110009550066,WEST MIRAMAR SANITARY LANDFILL,SAN DIEGO,CA,32.83582,-117.15236,141543.75,,141543.75,,,HH,Municipal Landfills,Direct Emitter
533,1006597,110013931415,WEST NASSAU SANITARY LANDFILL,CALLAHAN,FL,30.604718,-81.820482,23601.0,,23601.0,,,HH,Municipal Landfills,Direct Emitter
534,1006501,110043971093,WESTERN REGIONAL SANITARY LANDFILL,LINCOLN,CA,38.838852,-121.348045,26175.0,,26175.0,,,HH,Municipal Landfills,Direct Emitter
535,1000291,110060882567,WESTMORELAND SANITARY LDFL,BELLE VERNON,PA,40.144281,-79.858866,48153.25,,48153.25,,,HH,Municipal Landfills,Direct Emitter
536,1002514,110002371996,WHISPERING PINES LANDFILL,HOUSTON,TX,29.879,-95.266,21056.75,,21056.75,,,HH,Municipal Landfills,Direct Emitter
537,1007799,110034978424,WILLIAMSON COUNTY LANDFILL HUTTO,HUTTO,TX,30.6036,-97.5529,126287.25,,126287.25,,,HH,Municipal Landfills,Direct Emitter
538,1004558,110071162375,WILLOWCREEK LANDFILL,ATWATER,OH,41.01722,-81.09861,9932.25,,9932.25,,,HH,Municipal Landfills,Direct Emitter
539,1000382,110005735026,WINNESHIEK COUNTY SANITARY LANDFILL,DECORAH,IA,43.226364,-91.672622,35980.25,,35980.25,,,HH,Municipal Landfills,Direct Emitter
540,1004117,110043808378,"Waste Service of Decatur, LLC-Decatur County Landfill",Bath Springs,TN,35.479833,-88.077522,79115.0,,79115.0,,,HH,Municipal Landfills,Direct Emitter
541,1005274,110060508909,Wayne County Landfill,Dudley,NC,35.28865,-78.07143,62782.0,,62782.0,,,HH,Municipal Landfills,Direct Emitter
542,1006538,110034105723,Weatherford Landfill,Weatherford,TX,32.7148,-97.8601,58652.25,,58652.25,,,HH,Municipal Landfills,Direct Emitter
543,1004627,110043807164,West End Disposal Facility,Thompsonville,IL,37.876135,-88.702713,66225.25,,66225.25,,,HH,Municipal Landfills,Direct Emitter
544,1005480,110071159905,West Texas Region Disposal Facility,Abernathy,TX,33.866995,-101.866362,131628.0,,131628.0,,,HH,Municipal Landfills,Direct Emitter
545,1006748,110056378147,Wilkes County Landfill,Roaring River,NC,36.207954,-80.986352,62470.25,,62470.25,,,HH,Municipal Landfills,Direct Emitter
546,1003536,110013944312,Winfield Solid Waste Facility,Lake City,FL,30.2566,-82.7042,52937.5,,52937.5,,,HH,Municipal Landfills,Direct Emitter
547,1004402,110013910562,Woodville Landfill,Tulare,CA,36.1491,-119.2289,20125.25,,20125.25,,,HH,Municipal Landfills,Direct Emitter
548,1002511,110062452527,Woolworth Road Landfill,Keithville,LA,32.354272,-93.900303,127722.25,,127722.25,,,HH,Municipal Landfills,Direct Emitter
549,1004313,110012055060,Worthington Landfill,WORTHINGTON,IN,39.143575,-87.032962,37193.5,,37193.5,,,HH,Municipal Landfills,Direct Emitter
550,1004918,110005343538,YAKIMA CNTY CHEYNE LANDFILL,ZILLAH,WA,46.4785,-120.2688,45783.0,,45783.0,,,HH,Municipal Landfills,Direct Emitter
551,1008000,110061034090,YORK COUNTY LANDFILL,YORK,SC,34.9733,-81.2022,29342.5,,29342.5,,,HH,Municipal Landfills,Direct Emitter
552,1011371,110002065498,Yolo County Central Landfill,Woodland,CA,38.59067,-121.68481,21327.25,,21327.25,,,HH,Municipal Landfills,Direct Emitter
553,1011696,110064007550,white oak landfill,waynesville,NC,35.661943,-82.996087,105619.75,,105619.75,,,HH,Municipal Landfills,Direct Emitter
554,1010040,110071159872,15-18565/15-18662,Hazard,KY,37.274127,-83.239034,51538.75,,51538.75,,,FF,Underground Coal Mines,Direct Emitter
555,1009920,110055518355,Alma No. 1 Mine,Ethel,WV,37.873822,-81.893448,53200.0,,53200.0,,,FF,Underground Coal Mines,Direct Emitter
556,1010323,110071161096,American Eagle,Cabin Creek,WV,38.0908,-81.5291,174450.5,,174450.5,,,FF,Underground Coal Mines,Direct Emitter
557,1013982,,Black Eagle Deep Mine,Pettus,WV,37.957476815386,-81.5379977742566,82800.0,,82800.0,,,FF,Underground Coal Mines,Direct Emitter
558,1001687,110071160452,Blue Diamond Mining Mine 77,Hazard,KY,37.274127,-83.239034,38889.0,,38889.0,,,FF,Underground Coal Mines,Direct Emitter
559,1008387,110071160304,Buchanan Mine #1,Raven,VA,37.207886,-81.916612,975443.7,15754.7,959689.0,,,FF,Underground Coal Mines,Direct Emitter
560,1013900,,CONSOL Energy Itmann #5,Itmann,WV,37.574266907639,-81.4179182823898,17989.75,,17989.75,,,FF,Underground Coal Mines,Direct Emitter
561,1013016,110071161046,Carter Roag Coal Company - Morgan Camp Mine,Helvetia,WV,38.65567864,-80.1516867,5240.5,,5240.5,,,FF,Underground Coal Mines,Direct Emitter
562,1014015,,Cedar Grove #2 Mine,Yolyn,WV,37.8177458507505,-81.9331898203818,54225.0,,54225.0,,,FF,Underground Coal Mines,Direct Emitter
563,1014681,,Cedar Grove No.3 Mine,Lyburn,WV,37.7951835113227,-81.9476087561079,0.0,0.0,,,,FF,Underground Coal Mines,Direct Emitter
564,1010125,110046101240,Cleveland-Cliffs Princeton Coal,Princeton,WV,37.338238,-81.08738,50189.25,,50189.25,,,FF,Underground Coal Mines,Direct Emitter
565,1013071,110071162265,Crooked Creek Mine,Indiana,PA,40.664816,-79.245351,87380.0,,87380.0,,,FF,Underground Coal Mines,Direct Emitter
566,1013995,110070931048,Davy Branch Mine,Lyburn,WV,37.799367,-81.944258,50.0,,50.0,,,FF,Underground Coal Mines,Direct Emitter
567,1009821,110055517114,Deep Mine 41,Norton,VA,36.970042,-82.604399,1001498.0,,1001498.0,,,FF,Underground Coal Mines,Direct Emitter
568,1011516,110071160069,Deer Run Mine,Hillsboro,IL,39.129589,-89.471009,61957.5,,61957.5,,,FF,Underground Coal Mines,Direct Emitter
569,1010341,110071159660,Eagle,Comfort,WV,38.108776,-81.570611,21398.75,,21398.75,,,FF,Underground Coal Mines,Direct Emitter
570,1009948,110071160333,"Gibson County Coal, LLC",Princeton,IN,38.354475,-87.559361,424595.5,,424595.5,,,FF,Underground Coal Mines,Direct Emitter
571,1011909,110067409931,Heilwood Mine,Heilwood,PA,40.623989,-78.912658,137707.5,,137707.5,,,FF,Underground Coal Mines,Direct Emitter
572,1013481,,Jerry Fork Deep Mine,Drennen,WV,38.301599,-81.000071,18502.5,,18502.5,,,FF,Underground Coal Mines,Direct Emitter
573,1014367,110040509492,Knob Creek Mine,Clarksburg,PA,40.518154,-79.328615,88125.0,,88125.0,,,FF,Underground Coal Mines,Direct Emitter
574,1007472,110071161249,LEER SOUTH MINING COMPLEX,PHILIPPI,WV,39.184925,-80.053492,1033347.25,,1033347.25,,,FF,Underground Coal Mines,Direct Emitter
575,1010871,110063111163,Leer Mine,Grafton,WV,39.3417,-79.97591,279140.25,,279140.25,,,FF,Underground Coal Mines,Direct Emitter
576,1010656,110071159870,Lower War Eagle Deep Mine,Man,WV,37.71064,-81.898908,108451.5,,108451.5,,,FF,Underground Coal Mines,Direct Emitter
577,1010111,110055519327,Lowry Mine,Indiana,PA,40.667163,-79.132274,139995.0,,139995.0,,,FF,Underground Coal Mines,Direct Emitter
578,1013994,110070931027,Lynn Branch No.2 Mine,Lyburn,WV,37.768484,-81.926648,21200.0,,21200.0,,,FF,Underground Coal Mines,Direct Emitter
579,1009895,110010859339,Mingo Logan Coal LLC,Sharples,WV,37.923056,-81.833333,165648.0,,165648.0,,,FF,Underground Coal Mines,Direct Emitter
580,1014471,110002051163,"New Elk Coal Company, LLC",Weston,CO,37.14532,-105.03393,0.0,0.0,,,,FF,Underground Coal Mines,Direct Emitter
581,1011240,110071159586,Oaktown Fuels Mine No. 2,Oaktown,IN,38.85679,-87.42362,434137.0,2067.0,432070.0,,,FF,Underground Coal Mines,Direct Emitter
582,1003058,110071159586,Oaktown Fuels Mine No.1,Oaktown,IN,38.85679,-87.42362,654388.6,1797.6,652591.0,,,FF,Underground Coal Mines,Direct Emitter
583,1008766,110055514411,Ohio County Mine,Dallas,WV,39.9717,-80.5492,801173.5,,801173.5,,,FF,Underground Coal Mines,Direct Emitter
584,1010193,110071159437,Peerless,Comfort,WV,38.108776,-81.570611,19208.25,,19208.25,,,FF,Underground Coal Mines,Direct Emitter
585,1011471,,"Pocahontas Coal Company, LLC - Affinity Mine",Sophia,WV,37.70535,-81.226891,107493.0,,107493.0,,,FF,Underground Coal Mines,Direct Emitter
586,1010198,110071160348,Pond Creek No. 1 Mine,Marion,IL,37.83464,-88.83582,575878.75,,575878.75,,,FF,Underground Coal Mines,Direct Emitter
587,1011220,110020582467,Prairie Eagle Mine,Cutler,IL,38.071915,-89.589141,60345.75,,60345.75,,,FF,Underground Coal Mines,Direct Emitter
588,1011739,110064007239,Pride Mine,Central City,KY,37.291716,-87.05216,192169.0,,192169.0,,,FF,Underground Coal Mines,Direct Emitter
589,1009600,110055517221,Shoal Creek Mine,Oakman,AL,33.50668,-87.27089,283999.3,5841.8,278157.5,,,FF,Underground Coal Mines,Direct Emitter
590,1010263,110071159572,"Sugar Camp Energy, LLC",Macedonia,IL,38.034083,-88.760948,394629.5,,394629.5,,,FF,Underground Coal Mines,Direct Emitter
591,1009828,110005553622,"Tunnel Ridge, LLC",Triadelphia,WV,40.152515,-80.655804,995083.75,,995083.75,,,FF,Underground Coal Mines,Direct Emitter
592,1010057,110055519041,"Warrior Coal, LLC",Madisonville,KY,37.38339,-87.61172,332095.5,,332095.5,,,FF,Underground Coal Mines,Direct Emitter
593,1013783,110070835257,Warrior Met Coal Mine #4,Brookwood,AL,33.3286,-87.3319,618371.15,21.4,618349.75,,,FF,Underground Coal Mines,Direct Emitter
594,1010328,110000912031,"Warrior Met Coal, LLC",Brookwood,AL,33.26151,-87.31156,1187812.65,21.4,1187791.25,,,FF,Underground Coal Mines,Direct Emitter
595,1011237,110071162283,White Oak Resources Mine No. 1/Hamilton County Coal,Dahlgren,IL,38.1715,-88.6025,719299.25,,719299.25,,,FF,Underground Coal Mines,Direct Emitter
596,1005043,110071160392,3M CO,MAPLEWOOD,MN,44.951,-92.9959,87926.142,87820.6,44.75,60.792,,C,Stationary Combustion,Direct Emitter
597,1007698,110000421776,3M CO - WAUSAU DOWNTOWN,WAUSAU,WI,44.95018,-89.63766,41528.144,41485.4,19.5,23.244,,C,Stationary Combustion,Direct Emitter
598,1003408,110071161417,3M INDUSTRIAL MINERAL PRODUCTS DIVISION,LITTLE ROCK,AR,34.70537,-92.24607,32759.776,32725.8,15.5,18.476,,C,Stationary Combustion,Direct Emitter
599,1004914,110000425059,3M MAGNETIC TAPE MANUFACTURING DIVISION,HUTCHINSON,MN,44.879677,-94.359598,37329.26,37290.9,17.5,20.86,,C,Stationary Combustion,Direct Emitter
600,1004804,110000443805,3M NEVADA PLANT,NEVADA,MO,37.834476,-94.330625,34976.268,34940.1,16.5,19.668,,C,Stationary Combustion,Direct Emitter
601,1013282,,3M Pittsboro,Moncure,NC,35.660546,-79.176782,28141.944,28112.9,13.25,15.794,,C,Stationary Combustion,Direct Emitter
602,1000766,110064649901,59th Street,NEW YORK,NY,40.7711,-73.9911,201079.112,200865.7,96.0,117.412,,C,Stationary Combustion,Direct Emitter
603,1000767,110070834991,74th Street,NEW YORK,NY,40.768,-73.9515,253920.246,253582.5,136.0,201.746,,C,Stationary Combustion,Direct Emitter
604,1013527,,A.J. Mihm Generating Station,Pelkie,MI,46.793722,-88.616566,112263.528,112147.9,52.75,62.878,,C,Stationary Combustion,Direct Emitter
605,1002983,110018042562,ABBOTT PARK FACILITY,ABBOTT PARK,IL,42.30227,-87.89065,57247.084,57187.9,27.0,32.184,,C,Stationary Combustion,Direct Emitter
606,1007514,110007806188,ABBVIE LTD.,BARCELONETA,PR,18.433237,-66.570509,63109.69,63030.5,33.0,46.19,,C,Stationary Combustion,Direct Emitter
607,1005353,110038367228,ABERDEEN ENERGY LLC,MINA,SD,45.442417,-98.787139,192048.576,191850.2,90.5,107.876,,C,Stationary Combustion,Direct Emitter
608,1006971,110064337123,ABERDEEN PROVING GROUND-Aberdeen Area & Edgewood Area,APG,MD,39.481881,-76.137166,100250.064,100116.2,54.0,79.864,,C,Stationary Combustion,Direct Emitter
609,1005601,110007180709,ACME BRICK CO ELGIN PLANT,ELGIN,TX,30.32903,-97.29207,24461.508,24436.3,11.5,13.708,,C,Stationary Combustion,Direct Emitter
610,1005046,110007177722,ACME GYPSUM FACILITY,QUANAH,TX,34.323944,-99.818194,37964.008,37925.1,17.75,21.158,,C,Stationary Combustion,Direct Emitter
611,1002731,110071161104,ADA COGENERATION,ADA,MI,42.929287,-85.431127,126690.172,126559.2,59.75,71.222,,C,Stationary Combustion,Direct Emitter
612,1003752,110040089604,"ADA Carbon Solutions (Red River), LLC",Coushatta,LA,32.005411,-93.387823,321029.94,321027.2,1.25,1.49,,C,Stationary Combustion,Direct Emitter
613,1003422,110008978552,ADKINS ENERGY LLC,LENA,IL,42.3586,-89.80342,93889.296,93792.3,44.25,52.746,,C,Stationary Combustion,Direct Emitter
614,1002154,110013325507,ADM - MANKATO,MANKATO,MN,44.186805,-93.995493,106717.082,106155.0,209.25,352.832,,C,Stationary Combustion,Direct Emitter
615,1010610,110033021888,ADM Deerfield,Deerfield,MO,37.80725,-94.585301,42746.838,42702.7,20.0,24.138,,C,Stationary Combustion,Direct Emitter
616,1011855,110002319982,ADM Fostoria,Fostoria,OH,41.1494,-83.43295,27102.548,27074.6,12.75,15.198,,C,Stationary Combustion,Direct Emitter
617,1000376,110040894761,ADM QUINCY,QUINCY,IL,39.903884,-91.410552,96735.636,96635.9,45.5,54.236,,C,Stationary Combustion,Direct Emitter
618,1006080,110027360399,ADM SOUTHERN CELLULOSE PROD.IN,CHATTANOOGA,TN,34.997921,-85.318581,21700.268,21677.8,10.25,12.218,,C,Stationary Combustion,Direct Emitter
619,1000034,110067425799,ADM SOYBEAN PROCESSING - DES MOINES,DES MOINES,IA,41.626329,-93.583205,151811.58,150758.8,386.75,666.03,,C,Stationary Combustion,Direct Emitter
620,1014236,110000350370,ADM Southport,Southport,NC,33.94516,-78.00117,89098.308,89005.1,42.25,50.958,,C,Stationary Combustion,Direct Emitter
621,1011961,110012384561,ADM Valdosta,Valdosta,GA,30.8325,-83.248056,63147.99,63078.5,30.75,38.74,,C,Stationary Combustion,Direct Emitter
622,1000627,110000342460,ADVANSIX INC - CHESTERFIELD PLANT,CHESTER,VA,37.336111,-77.2825,60013.56,59948.8,29.0,35.76,,C,Stationary Combustion,Direct Emitter
623,1005310,110071162472,AES - PUERTO RICO COGENERATION PLANT,GUAYAMA,PR,17.945,-66.15027,3474944.396,3451922.8,8419.0,14602.596,,C,Stationary Combustion,Direct Emitter
624,1005972,110027164164,AES HAWAII INC,KAPOLEI,HI,21.301222,-158.107306,642018.812,636257.4,2105.25,3656.162,,C,Stationary Combustion,Direct Emitter
625,1003853,110045614689,AFTON CHEMICAL CORP,SAUGET,IL,38.60055,-90.1729,51466.256,51413.1,24.25,28.906,,C,Stationary Combustion,Direct Emitter
626,1002069,110018869303,AG PROCESSING INC,EMMETSBURG,IA,43.10102,-94.65419,24229.608,24204.4,11.5,13.708,,C,Stationary Combustion,Direct Emitter
627,1006054,110011273022,AG PROCESSING INC-EAGLE GROVE,EAGLE GROVE,IA,42.669167,-93.904444,71687.28,71613.3,33.75,40.23,,C,Stationary Combustion,Direct Emitter
628,1002408,110018868126,AG PROCESSING INC-SHELDON,SHELDON,IA,43.182248,-95.856177,27479.596,27451.1,13.0,15.496,,C,Stationary Combustion,Direct Emitter
629,1002291,110000427093,AG PROCESSING INCORPORATED A COOPERATIVE,DAWSON,MN,44.93265,-96.056491,39250.652,39210.1,18.5,22.052,,C,Stationary Combustion,Direct Emitter
630,1002067,110054910094,AGP SOY/CORN PROCESSING,HASTINGS,NE,40.58971,-98.33974,190387.12,189003.5,507.5,876.12,,C,Stationary Combustion,Direct Emitter
631,1001919,110071162246,AHN Heartland Ingredients,EDDYVILLE,IA,41.14375,-92.647694,116859.66,116739.1,55.0,65.56,,C,Stationary Combustion,Direct Emitter
632,1003780,110014407846,AIR LIQUIDE - PORT NECHES ASU COGENERATION PLANT,PORT NECHES,TX,29.981116,-93.952389,3054.888,3051.6,1.5,1.788,,C,Stationary Combustion,Direct Emitter
633,1006115,110070712127,AIR LIQUIDE AMERICA CORP.,GEISMAR,LA,30.21023,-90.99085,446311.82,445851.5,210.0,250.32,,C,Stationary Combustion,Direct Emitter
634,1003591,110066912586,AIR LIQUIDE GEISMAR UTILITY SERVICES,GEISMAR,LA,30.216085,-91.002699,150611.168,150378.3,94.0,138.868,,C,Stationary Combustion,Direct Emitter
635,1002430,110012710423,AIR PRODUCTS BAYTOWN PLANT,BAYTOWN,TX,29.757778,-95.023056,59959.824,59897.9,28.25,33.674,,C,Stationary Combustion,Direct Emitter
636,1005149,110000594642,AL CORN CLEAN FUEL,CLAREMONT,MN,44.049412,-93.017379,203160.136,202950.8,95.5,113.836,,C,Stationary Combustion,Direct Emitter
637,1007272,110000359068,ALADDIN MILLS - ANTIOCH RD PLA NT,DALTON,GA,34.73399,-84.94646,35587.164,35549.9,17.0,20.264,,C,Stationary Combustion,Direct Emitter
638,1003402,110056955987,ALBEMARLE CORPORATION HOUSTON PLANT,PASADENA,TX,29.742498,-95.165513,44964.018,44914.9,22.0,27.118,,C,Stationary Combustion,Direct Emitter
639,1004307,110000743508,ALBEMARLE CORPORATION-SOUTH PLANT,MAGNOLIA,AR,33.1756,-93.2169,82972.088,82886.6,39.0,46.488,,C,Stationary Combustion,Direct Emitter
640,1005862,110000345010,ALLEGANY BALLISTICS LABORATORY,KEYSER,WV,39.56097,-78.84361,23694.06,23669.4,11.25,13.41,,C,Stationary Combustion,Direct Emitter
641,1000048,110070030311,"ALLISON TRANSMISSION, Inc.",INDIANAPOLIS,IN,39.779861,-86.240969,6229.848,6208.4,6.25,15.198,,C,Stationary Combustion,Direct Emitter
642,1004327,110000451467,ALMATIS INC - BAUXITE ARKANSAS,Benton,AR,34.57522,-92.53173,67719.696,67650.1,31.75,37.846,,C,Stationary Combustion,Direct Emitter
643,1013670,110071045624,ALTIVIA Institute Facilities,Dunbar,WV,38.384705,-81.776181,105582.152,105473.1,49.75,59.302,,C,Stationary Combustion,Direct Emitter
644,1007401,110042073332,"ALTIVIA Petrochemicals, LLC - HAVERHILL COMPLEX",HAVERHILL,OH,38.59167,-82.81944,27363.796,27335.3,13.0,15.496,,C,Stationary Combustion,Direct Emitter
645,1007264,110035761912,ALTO MAGIC VALLEY LLC,BURLEY,ID,42.521324,-113.815693,56649.236,56590.6,26.75,31.886,,C,Stationary Combustion,Direct Emitter
646,1005184,110071162512,ALYESKA PIPELINE SE/TAPS PUMP STATION 01,PRUDHOE BAY,AK,70.257222,-148.617778,68736.592,68665.9,32.25,38.442,,C,Stationary Combustion,Direct Emitter
647,1005781,110064041834,"ALYESKA PIPELINE SERVICE COMPANY, Valdez Marine Terminal",VALDEZ,AK,61.084857,-146.388531,21050.856,20978.1,21.5,51.256,,C,Stationary Combustion,Direct Emitter
648,1005491,110069711869,"AM/NS Calvert, LLC",CALVERT,AL,30.8,-88.1,518893.396,518358.0,244.25,291.146,,C,Stationary Combustion,Direct Emitter
649,1004732,110012703271,AMERICAN ACRYL PASADENA,PASADENA,TX,29.62132,-95.06676,73207.924,73132.3,34.5,41.124,,C,Stationary Combustion,Direct Emitter
650,1005432,110010495384,AMERICAN AIRLINES,TULSA,OK,36.204822,-95.868808,35268.82,35223.5,18.5,26.82,,C,Stationary Combustion,Direct Emitter
651,1005327,110000366611,AMERICAN CAST IRON PIPE CO,BIRMINGHAM,AL,33.54698,-86.83465,168767.704,168042.1,271.75,453.854,,C,Stationary Combustion,Direct Emitter
652,1008041,110054631225,AMERICAN COLLOID,Colony,WY,44.86636,-104.1513,52668.218,52571.8,39.5,56.918,,C,Stationary Combustion,Direct Emitter
653,1000007,110007014774,AMERICAN GYPSUM - BERNALILLO (WALLBOARD) PLANT,BERNALILLO,NM,35.330083,-106.5275,16693.588,16676.6,7.75,9.238,,C,Stationary Combustion,Direct Emitter
654,1005175,110007385551,AMERICAN GYPSUM CO /GYPSUM WALLBOARD PLT,DUKE,OK,34.66029,-99.58732,96069.888,95970.7,45.25,53.938,,C,Stationary Combustion,Direct Emitter
655,1007404,110071162329,AMERICAN GYPSUM COMPANY,GYPSUM,CO,39.658889,-106.956111,75047.368,74970.1,35.25,42.018,,C,Stationary Combustion,Direct Emitter
656,1004845,110001556138,AMERICAN GYPSUM COMPANY,ALBUQUERQUE,NM,35.17237,-106.59347,46102.876,46055.2,21.75,25.926,,C,Stationary Combustion,Direct Emitter
657,1001860,110009575762,AMERICAN SUGAR REFINING INC - Chalmette Refinery,ARABI,LA,29.953576,-89.997583,140597.52,140452.3,66.25,78.97,,C,Stationary Combustion,Direct Emitter
658,1006919,110000378546,AMERICAN SYNTHETIC RUBBER,LOUISVILLE,KY,38.209317,-85.847511,160339.736,159458.6,327.75,553.386,,C,Stationary Combustion,Direct Emitter
659,1001962,110056954602,AMERICAS STYRENICS LLC - ST JAMES PLANT,ST. JAMES,LA,30.08013,-90.916,596881.73,595588.8,425.75,867.18,,C,Stationary Combustion,Direct Emitter
660,1005072,110071162473,"AMGEN MANUFACTURING, LIMITED",JUNCOS,PR,18.2375,-65.907222,36979.004,36853.2,37.0,88.804,,C,Stationary Combustion,Direct Emitter
661,1006111,110000382773,ANHEUSER BUSCH INC,COLUMBUS,OH,40.103056,-82.993056,34823.134,34769.2,21.75,32.184,,C,Stationary Combustion,Direct Emitter
662,1002867,110017431322,ANHEUSER BUSCH INC. - L.A. BREWERY,VAN NUYS,CA,34.22132,-118.48044,32789.542,32727.1,24.0,38.442,,C,Stationary Combustion,Direct Emitter
663,1003352,110057414070,ANHEUSER BUSCH INCORPORATED FORT COLLINS BREWERY,FORT COLLINS,CO,40.619722,-105.006111,40062.646,40020.7,19.0,22.946,,C,Stationary Combustion,Direct Emitter
664,1003176,110000341684,ANHEUSER BUSCH LLC,WILLIAMSBURG,VA,37.237518,-76.652662,34176.82,34141.2,16.25,19.37,,C,Stationary Combustion,Direct Emitter
665,1003224,110000461401,ANHEUSER-BUSCH HOUSTON BREWERY,HOUSTON,TX,29.774444,-95.270833,41103.8,41041.3,25.25,37.25,,C,Stationary Combustion,Direct Emitter
666,1006147,110000362036,ANHEUSER-BUSCH LLC,JACKSONVILLE,FL,30.433075,-81.647505,55669.492,55591.1,32.5,45.892,,C,Stationary Combustion,Direct Emitter
667,1006904,110000356427,"ANHEUSER-BUSCH, INC. CARTERSVI LLE BREWERY",CARTERSVILLE,GA,34.2557,-84.7825,19426.796,19378.9,17.5,30.396,,C,Stationary Combustion,Direct Emitter
668,1003525,110070344532,"ANHEUSER-BUSCH, INC. NEWARK BREWERY",NEWARK,NJ,40.6916,-74.1916,23836.13,23805.0,13.25,17.88,,C,Stationary Combustion,Direct Emitter
669,1005490,110001547675,ANIMAS POWER PLANT,FARMINGTON,NM,36.72488,-108.19144,0.0,0.0,,,,C,Stationary Combustion,Direct Emitter
670,1000793,110069729271,"APG Polytech, LLC",APPLE GROVE,WV,38.663697,-82.16883,42061.592,42018.3,19.75,23.542,,C,Stationary Combustion,Direct Emitter
671,1002596,110067751702,APPVION - APPLETON PLT,APPLETON,WI,44.2729,-88.39311,28461.892,28432.3,13.5,16.092,,C,Stationary Combustion,Direct Emitter
672,1005385,110041568568,ARCELORMITTAL TUBULAR PRODUCTS USA LLC,SHELBY,OH,40.88135,-82.66758,63133.712,63068.5,29.75,35.462,,C,Stationary Combustion,Direct Emitter
673,1003215,110000592047,ARCHER DANIELS MIDLAND,FRANKFORT,IN,40.2853,-86.5479,48791.116,48740.7,23.0,27.416,,C,Stationary Combustion,Direct Emitter
674,1005935,110002382680,ARCHER DANIELS MIDLAND COMPANY,LINCOLN,NE,40.86667,-96.619116,153579.564,152500.0,396.25,683.314,,C,Stationary Combustion,Direct Emitter
675,1005940,110000595115,ARCHER DANIELS MIDLAND PROCESSING,VELVA,ND,48.062103,-100.924722,41737.992,41694.7,19.75,23.542,,C,Stationary Combustion,Direct Emitter
676,1004649,110000404198,ARCONIC LAFAYETTE LLC,LAFAYETTE,IN,40.395778,-86.859639,38859.304,38819.3,18.25,21.754,,C,Stationary Combustion,Direct Emitter
677,1002795,110000916812,ARCONIC TENNESSEE OPERATIONS,ALCOA,TN,35.811815,-83.969576,203730.884,203521.0,95.75,114.134,,C,Stationary Combustion,Direct Emitter
678,1006199,110071161153,ARIZONA STATE UNIVERSITY,TEMPE,AZ,33.42195,-111.935,61764.468,61700.9,29.0,34.568,,C,Stationary Combustion,Direct Emitter
679,1006644,110000464168,ARKEMA BEAUMONT PLANT,BEAUMONT,TX,30.060226,-94.058976,54183.896,54128.0,25.5,30.396,,C,Stationary Combustion,Direct Emitter
680,1006797,110071372206,ARKEMA INC CLEAR LAKE,PASADENA,TX,29.62139,-95.06389,89531.164,89439.1,42.0,50.064,,C,Stationary Combustion,Direct Emitter
681,1013817,110070931059,ARLANXEO Orange Site,Orange,TX,30.049622,-93.772226,210148.208,209931.2,99.0,118.008,,C,Stationary Combustion,Direct Emitter
682,1003208,110000333906,ARMSTRONG WORLD IND MARIETTA CEILING PLT,MARIETTA,PA,40.0586,-76.58845,71853.88,71779.9,33.75,40.23,,C,Stationary Combustion,Direct Emitter
683,1002968,110001737130,ARMSTRONG WORLD INDUSTRIES INC.,PENSACOLA,FL,30.408671,-87.250165,25162.856,25137.1,11.75,14.006,,C,Stationary Combustion,Direct Emitter
684,1002494,110070834736,ASARCO LLC AMARILLO COPPER REFINERY,AMARILLO,TX,35.284716,-101.730177,10896.708,10885.2,5.25,6.258,,C,Stationary Combustion,Direct Emitter
685,1002486,110069332261,ASARCO LLC Hayden Operations,Hayden,AZ,33.003378,-110.77632,494.048,493.5,0.25,0.298,,C,Stationary Combustion,Direct Emitter
686,1003496,110009878748,ASHLEY Energy LLC,SAINT LOUIS,MO,38.63639,-90.18108,62826.064,62761.4,29.5,35.164,,C,Stationary Combustion,Direct Emitter
687,1005442,110000417228,ATI LADISH LLC,CUDAHY,WI,42.947167,-87.8615,48195.568,48145.7,22.75,27.118,,C,Stationary Combustion,Direct Emitter
